{"features":[{"geometry":{"coordinates":[5.71307,45.13832],"type":"Point"},"properties":{"code":"GENDENPAPIN","description":"","id":"DENPAPIN","name":"Échirolles, Denis Papin","wheelchair_boarding":"available"},"type":"Feature"},{"geometry":{"coordinates":[5.74983,45.19906],"type":"Point"},"properties":{"code":"2053","description":"","id":"2053","name":"La Tronche, Grand Sablon","parent_station":"GRDSABLO","wheelchair_boarding":"available"},"type":"Feature"},{"geometry":{"coordinates":[5.86554,45.21856],"type":"Point"},"properties":{"code":"GENCOB","description":"","id":"COB","name":"Le Versoud, Côte Belle","wheelchair_boarding":"available"},"type":"Feature"},{"geometry":{"coordinates":[5.87235,45.22495],"type":"Point"},"properties":{"code":"3473","description":"","id":"3473","name":"Le Versoud, Pont de Pruney","parent_station":"PP","wheelchair_boarding":"available"},"type":"Feature"},{"geometry":{"coordinates":[5.74031,45.17076],"type":"Point"},"properties":{"code":"799","description":"","id":"799","name":"Grenoble, Teisseire","parent_station":"TEISSEIR","wheelchair_boarding":"available"},"type":"Feature"},{"geometry":{"coordinates":[5.6133,45.01693],"type":"Point"},"properties":{"code":"GENPRELENFR","description":"","id":"PRELENFR","name":"Le Gua, Prélenfrey Eglise","wheelchair_boarding":"available"},"type":"Feature"},{"geometry":{"coordinates":[5.77355,45.13855],"type":"Point"},"properties":{"code":"4148","description":"","id":"4148","name":"Brié-et-Angonnes, Beaulieu","parent_station":"BEAULIEU","wheelchair_boarding":"available"},"type":"Feature"},{"geometry":{"coordinates":[5.67875,45.16807],"type":"Point"},"properties":{"code":"GENLECOMB","description":"","id":"LECOMB","name":"Seyssinet-Pariset, Les Combes","wheelchair_boarding":"available"},"type":"Feature"},{"geometry":{"coordinates":[5.7082,45.15602],"type":"Point"},"properties":{"code":"4929","description":"","id":"4929","name":"Échirolles, Navis","parent_station":"NAVIS","wheelchair_boarding":"not available"},"type":"Feature"},{"geometry":{"coordinates":[5.73225,45.16947],"type":"Point"},"properties":{"code":"2008","description":"","id":"2008","name":"Grenoble, Malherbe","parent_station":"MALHERBE","wheelchair_boarding":"available"},"type":"Feature"},{"geometry":{"coordinates":[5.6497,45.22925],"type":"Point"},"properties":{"code":"GENPRAPARIS","description":"","id":"PRAPARIS","name":"Sassenage, Praparis Usine","wheelchair_boarding":"available"},"type":"Feature"},{"geometry":{"coordinates":[5.68295,45.1613],"type":"Point"},"properties":{"code":"1757","description":"","id":"1757","name":"Seyssins, L'Agneau","parent_station":"LAGNEAU","wheelchair_boarding":"available"},"type":"Feature"},{"geometry":{"coordinates":[5.75931,45.19073],"type":"Point"},"properties":{"code":"5064","description":"","id":"5064","name":"Saint-Martin-d'Hères, Les Taillées - Universités","parent_station":"TAILLEES","wheelchair_boarding":"available"},"type":"Feature"},{"geometry":{"coordinates":[5.73508,45.18033],"type":"Point"},"properties":{"code":"822","description":"","id":"822","name":"Grenoble, Mallifaud","parent_station":"MALLIFAU","wheelchair_boarding":"available"},"type":"Feature"},{"geometry":{"coordinates":[5.73308,45.16892],"type":"Point"},"properties":{"code":"797","description":"","id":"797","name":"Grenoble, Malherbe","parent_station":"MALHERBE","wheelchair_boarding":"available"},"type":"Feature"},{"geometry":{"coordinates":[5.67151,45.23531],"type":"Point"},"properties":{"code":"GENSTEGVGAR","description":"","id":"STEGVGAR","name":"Saint-Égrève, Saint Egrève Gare","wheelchair_boarding":"available"},"type":"Feature"},{"geometry":{"coordinates":[5.72917,45.195],"type":"Point"},"properties":{"code":"49","description":"","id":"49","name":"Grenoble, Place Cymaise","parent_station":"PLACECYM","wheelchair_boarding":"available"},"type":"Feature"},{"geometry":{"coordinates":[5.77174,45.2059],"type":"Point"},"properties":{"code":"19","description":"","id":"19","name":"Meylan, Buclos","parent_station":"LEBRET","wheelchair_boarding":"available"},"type":"Feature"},{"geometry":{"coordinates":[5.65625,45.21064],"type":"Point"},"properties":{"code":"2194","description":"","id":"2194","name":"Sassenage, Blanc Fontaine","parent_station":"BLANCFON","wheelchair_boarding":"not available"},"type":"Feature"},{"geometry":{"coordinates":[5.79351,45.22197],"type":"Point"},"properties":{"code":"GENCHEMARTI","description":"","id":"CHEMARTI","name":"Meylan, Chemin Saint-Martin","wheelchair_boarding":"available"},"type":"Feature"},{"geometry":{"coordinates":[5.6942,45.25321],"type":"Point"},"properties":{"code":"2295","description":"","id":"2295","name":"Proveysieux, Moretière","parent_station":"MORE","wheelchair_boarding":"not available"},"type":"Feature"},{"geometry":{"coordinates":[5.79162,45.09133],"type":"Point"},"properties":{"code":"4242","description":"","id":"4242","name":"Vaulnaveys-le-Bas, Les Travers","parent_station":"TRAVERS","wheelchair_boarding":"available"},"type":"Feature"},{"geometry":{"coordinates":[5.63803,45.23642],"type":"Point"},"properties":{"code":"160","description":"","id":"160","name":"Noyarey, Chaulnes","parent_station":"CHAULNES","wheelchair_boarding":"available"},"type":"Feature"},{"geometry":{"coordinates":[5.73416,45.20195],"type":"Point"},"properties":{"code":"GENPTTRONCH","description":"","id":"PTTRONCH","name":"La Tronche, Petite Tronche","wheelchair_boarding":"available"},"type":"Feature"},{"geometry":{"coordinates":[5.89756,45.32494],"type":"Point"},"properties":{"code":"3119","description":"","id":"3119","name":"Plateau-des-Petites-Roches, Le Prayer","parent_station":"PPP","wheelchair_boarding":"available"},"type":"Feature"},{"geometry":{"coordinates":[5.78312,45.21882],"type":"Point"},"properties":{"code":"GENBERIVIER","description":"","id":"BERIVIER","name":"Meylan, Bérivière","wheelchair_boarding":"available"},"type":"Feature"},{"geometry":{"coordinates":[5.69576,45.2456],"type":"Point"},"properties":{"code":"4361","description":"","id":"4361","name":"Saint-Égrève, Grange Haute","parent_station":"GRANG","wheelchair_boarding":"not available"},"type":"Feature"},{"geometry":{"coordinates":[5.69604,45.25819],"type":"Point"},"properties":{"code":"4091","description":"","id":"4091","name":"Proveysieux, Le Mollard","parent_station":"EGREMOLL","wheelchair_boarding":"not available"},"type":"Feature"},{"geometry":{"coordinates":[5.69956,45.20595],"type":"Point"},"properties":{"code":"4022","description":"","id":"4022","name":"Grenoble, Oxford","parent_station":"OXF","wheelchair_boarding":"available"},"type":"Feature"},{"geometry":{"coordinates":[5.73257,45.19802],"type":"Point"},"properties":{"code":"448","description":"","id":"448","name":"Grenoble, Saint-Laurent","parent_station":"STLAUREN","wheelchair_boarding":"available"},"type":"Feature"},{"geometry":{"coordinates":[5.76518,45.17204],"type":"Point"},"properties":{"code":"GENALLOVES","description":"","id":"ALLOVES","name":"Saint-Martin-d'Hères, Les Alloves","wheelchair_boarding":"available"},"type":"Feature"},{"geometry":{"coordinates":[5.72454,45.17659],"type":"Point"},"properties":{"code":"742","description":"","id":"742","name":"Grenoble, Capuche","parent_station":"CAPUCHE","wheelchair_boarding":"available"},"type":"Feature"},{"geometry":{"coordinates":[5.72588,45.17582],"type":"Point"},"properties":{"code":"764","description":"","id":"764","name":"Grenoble, Capuche","parent_station":"CAPUCHE","wheelchair_boarding":"available"},"type":"Feature"},{"geometry":{"coordinates":[5.91002,45.3058],"type":"Point"},"properties":{"code":"2108","description":"","id":"2108","name":"Lumbin, Lumbin Le Village","parent_station":"LUBV","wheelchair_boarding":"available"},"type":"Feature"},{"geometry":{"coordinates":[5.70887,45.17566],"type":"Point"},"properties":{"code":"GENSALENGRO","description":"","id":"SALENGRO","name":"Grenoble, Salengro","wheelchair_boarding":"available"},"type":"Feature"},{"geometry":{"coordinates":[5.61587,45.01277],"type":"Point"},"properties":{"code":"GENLACHARRI","description":"","id":"LACHARRI","name":"Le Gua, La Charrière","wheelchair_boarding":"available"},"type":"Feature"},{"geometry":{"coordinates":[5.81771,45.22897],"type":"Point"},"properties":{"code":"3152","description":"","id":"3152","name":"Montbonnot-Saint-Martin, Le Tartaix","parent_station":"LTA","wheelchair_boarding":"available"},"type":"Feature"},{"geometry":{"coordinates":[5.79001,45.17412],"type":"Point"},"properties":{"code":"GENLACOMBE","description":"","id":"LACOMBE","name":"Gières, La Combe","wheelchair_boarding":"available"},"type":"Feature"},{"geometry":{"coordinates":[5.79781,45.22478],"type":"Point"},"properties":{"code":"2800","description":"","id":"2800","name":"Montbonnot-Saint-Martin, Avenue du Général de Gaulle","parent_station":"AGD","wheelchair_boarding":"available"},"type":"Feature"},{"geometry":{"coordinates":[5.72321,45.16955],"type":"Point"},"properties":{"code":"GENCLOSDOR","description":"","id":"CLOSDOR","name":"Grenoble, Clos d'Or","wheelchair_boarding":"available"},"type":"Feature"},{"geometry":{"coordinates":[5.6497,45.22925],"type":"Point"},"properties":{"code":"180","description":"","id":"180","name":"Sassenage, Praparis Usine","parent_station":"PRAPARIS","wheelchair_boarding":"available"},"type":"Feature"},{"geometry":{"coordinates":[5.79007,45.22103],"type":"Point"},"properties":{"code":"GENJAILLIER","description":"","id":"JAILLIER","name":"Meylan, Les Jaillières","wheelchair_boarding":"available"},"type":"Feature"},{"geometry":{"coordinates":[5.77908,45.21845],"type":"Point"},"properties":{"code":"471","description":"","id":"471","name":"Meylan, Haut-Meylan","parent_station":"HTMEYLAN","wheelchair_boarding":"not available"},"type":"Feature"},{"geometry":{"coordinates":[5.7128,45.21714],"type":"Point"},"properties":{"code":"4230","description":"","id":"4230","name":"Saint-Martin-le-Vinoux, La Banchardière","parent_station":"BANCHARD","wheelchair_boarding":"not available"},"type":"Feature"},{"geometry":{"coordinates":[5.69865,45.21384],"type":"Point"},"properties":{"code":"5071","description":"","id":"5071","name":"Saint-Martin-le-Vinoux, Horloge","parent_station":"HORLOGE","wheelchair_boarding":"not available"},"type":"Feature"},{"geometry":{"coordinates":[5.83514,45.16415],"type":"Point"},"properties":{"code":"GENSND","description":"","id":"SND","name":"Saint-Martin-d'Uriage, Saint-Nizier d'Uriage","wheelchair_boarding":"available"},"type":"Feature"},{"geometry":{"coordinates":[5.69852,45.14003],"type":"Point"},"properties":{"code":"GENLALUIRE","description":"","id":"LALUIRE","name":"Le Pont-de-Claix, Gendarmerie","wheelchair_boarding":"available"},"type":"Feature"},{"geometry":{"coordinates":[5.67871,45.15696],"type":"Point"},"properties":{"code":"697","description":"","id":"697","name":"Seyssins, Le Priou","parent_station":"LEPRIOU","wheelchair_boarding":"not available"},"type":"Feature"},{"geometry":{"coordinates":[5.77752,45.26479],"type":"Point"},"properties":{"code":"4165","description":"","id":"4165","name":"Le Sappey-en-Chartreuse, Churut","parent_station":"CHURU","wheelchair_boarding":"not available"},"type":"Feature"},{"geometry":{"coordinates":[5.80262,45.17409],"type":"Point"},"properties":{"code":"96","description":"","id":"96","name":"Venon, La Ville","parent_station":"LAVILLE","wheelchair_boarding":"not available"},"type":"Feature"},{"geometry":{"coordinates":[5.8144,45.12172],"type":"Point"},"properties":{"code":"4250","description":"","id":"4250","name":"Vaulnaveys-le-Haut, Ecole Jules Bruant","parent_station":"JBRUANT","wheelchair_boarding":"available"},"type":"Feature"},{"geometry":{"coordinates":[5.67206,45.08765],"type":"Point"},"properties":{"code":"GENPOMMERAI","description":"","id":"POMMERAI","name":"Varces-Allières-et-Risset, La Pommeraie","wheelchair_boarding":"available"},"type":"Feature"},{"geometry":{"coordinates":[5.7875,45.08143],"type":"Point"},"properties":{"code":"4239","description":"","id":"4239","name":"Vizille, Les Corniers","parent_station":"CORNIERS","wheelchair_boarding":"available"},"type":"Feature"},{"geometry":{"coordinates":[5.90318,45.33015],"type":"Point"},"properties":{"code":"3124","description":"","id":"3124","name":"Plateau-des-Petites-Roches, Les Pelloux","parent_station":"PPPE","wheelchair_boarding":"available"},"type":"Feature"},{"geometry":{"coordinates":[5.90542,45.34414],"type":"Point"},"properties":{"code":"GENPPB","description":"","id":"PPB","name":"Plateau-des-Petites-Roches, La Bâtie","wheelchair_boarding":"available"},"type":"Feature"},{"geometry":{"coordinates":[5.70842,45.15627],"type":"Point"},"properties":{"code":"4928","description":"","id":"4928","name":"Échirolles, Navis","parent_station":"NAVIS","wheelchair_boarding":"not available"},"type":"Feature"},{"geometry":{"coordinates":[5.74591,45.17827],"type":"Point"},"properties":{"code":"373","description":"","id":"373","name":"Grenoble, Saint-Augustin","parent_station":"STAUGUST","wheelchair_boarding":"available"},"type":"Feature"},{"geometry":{"coordinates":[5.74887,45.16512],"type":"Point"},"properties":{"code":"517","description":"","id":"517","name":"Saint-Martin-d'Hères, Paul Eluard","parent_station":"PAULELUA","wheelchair_boarding":"available"},"type":"Feature"},{"geometry":{"coordinates":[5.90231,45.33552],"type":"Point"},"properties":{"code":"GENPPD","description":"","id":"PPD","name":"Plateau-des-Petites-Roches, La Diat","wheelchair_boarding":"available"},"type":"Feature"},{"geometry":{"coordinates":[5.73994,45.16115],"type":"Point"},"properties":{"code":"GENPLGEANTS","description":"","id":"PLGEANTS","name":"Grenoble, Les Géants","wheelchair_boarding":"available"},"type":"Feature"},{"geometry":{"coordinates":[5.71059,45.25635],"type":"Point"},"properties":{"code":"GENBASPET","description":"","id":"BASPET","name":"Quaix-en-Chartreuse, Bas de Petesset","wheelchair_boarding":"available"},"type":"Feature"},{"geometry":{"coordinates":[5.77841,45.07544],"type":"Point"},"properties":{"code":"4237","description":"","id":"4237","name":"Vizille, Les Allas","parent_station":"LESALLAS","wheelchair_boarding":"available"},"type":"Feature"},{"geometry":{"coordinates":[6.05154,45.37731],"type":"Point"},"properties":{"code":"3413","description":"","id":"3413","name":"Crêts-en-Belledonne, La Roche","parent_station":"LROC","wheelchair_boarding":"available"},"type":"Feature"},{"geometry":{"coordinates":[5.83506,45.14085],"type":"Point"},"properties":{"code":"GENHT","description":"","id":"HT","name":"Saint-Martin-d'Uriage, Hôpital Thermal","wheelchair_boarding":"available"},"type":"Feature"},{"geometry":{"coordinates":[5.70619,45.21043],"type":"Point"},"properties":{"code":"4081","description":"","id":"4081","name":"Saint-Martin-le-Vinoux, Canet","parent_station":"CHEMI","wheelchair_boarding":"not available"},"type":"Feature"},{"geometry":{"coordinates":[5.70574,45.11393],"type":"Point"},"properties":{"code":"GENBOSITE","description":"","id":"BOSITE","name":"Le Pont-de-Claix, Beau Site","wheelchair_boarding":"available"},"type":"Feature"},{"geometry":{"coordinates":[5.87009,45.27394],"type":"Point"},"properties":{"code":"1647","description":"","id":"1647","name":"Crolles, Pont de Bernin","parent_station":"PBER","wheelchair_boarding":"available"},"type":"Feature"},{"geometry":{"coordinates":[5.94722,45.3518],"type":"Point"},"properties":{"code":"3172","description":"","id":"3172","name":"Le Touvet, La Conche","parent_station":"CONC","wheelchair_boarding":"available"},"type":"Feature"},{"geometry":{"coordinates":[5.69018,45.06225],"type":"Point"},"properties":{"code":"1100","description":"","id":"1100","name":"Vif, Le Petit Brion","parent_station":"PETIBRIO","wheelchair_boarding":"not available"},"type":"Feature"},{"geometry":{"coordinates":[5.69958,45.20597],"type":"Point"},"properties":{"code":"4021","description":"","id":"4021","name":"Grenoble, Oxford","parent_station":"OXF","wheelchair_boarding":"available"},"type":"Feature"},{"geometry":{"coordinates":[5.70685,45.20826],"type":"Point"},"properties":{"code":"1467","description":"","id":"1467","name":"Saint-Martin-le-Vinoux, Saint-Martin-le-Vinoux Hôtel de Ville","parent_station":"MAIRIESM","wheelchair_boarding":"available"},"type":"Feature"},{"geometry":{"coordinates":[5.67022,45.23439],"type":"Point"},"properties":{"code":"1296","description":"","id":"1296","name":"Saint-Égrève, La Biolle - Gare","parent_station":"BIOLLE","wheelchair_boarding":"not available"},"type":"Feature"},{"geometry":{"coordinates":[5.82817,45.13947],"type":"Point"},"properties":{"code":"GENRSM","description":"","id":"RSM","name":"Saint-Martin-d'Uriage, Route de Saint-Martin","wheelchair_boarding":"available"},"type":"Feature"},{"geometry":{"coordinates":[5.74465,45.18709],"type":"Point"},"properties":{"code":"2244","description":"","id":"2244","name":"Grenoble, Flandrin - Valmy","parent_station":"VALMY","wheelchair_boarding":"available"},"type":"Feature"},{"geometry":{"coordinates":[6.03336,45.36678],"type":"Point"},"properties":{"code":"3418","description":"","id":"3418","name":"Crêts-en-Belledonne, Sailles","parent_station":"CBS","wheelchair_boarding":"available"},"type":"Feature"},{"geometry":{"coordinates":[5.83398,45.20714],"type":"Point"},"properties":{"code":"1161","description":"","id":"1161","name":"Domène, Les Vernes","parent_station":"VERNES","wheelchair_boarding":"available"},"type":"Feature"},{"geometry":{"coordinates":[5.73474,45.08448],"type":"Point"},"properties":{"code":"4356","description":"","id":"4356","name":"Champ-sur-Drac, Léo Lagrange","parent_station":"LEOLA","wheelchair_boarding":"not available"},"type":"Feature"},{"geometry":{"coordinates":[5.88904,45.28895],"type":"Point"},"properties":{"code":"3399","description":"","id":"3399","name":"Crolles, Pied de Crolles","parent_station":"PDC","wheelchair_boarding":"available"},"type":"Feature"},{"geometry":{"coordinates":[5.65204,45.21228],"type":"Point"},"properties":{"code":"2270","description":"","id":"2270","name":"Sassenage, Château de Beaurevoir","parent_station":"CHATBEAU","wheelchair_boarding":"not available"},"type":"Feature"},{"geometry":{"coordinates":[5.71813,45.19896],"type":"Point"},"properties":{"code":"4232","description":"","id":"4232","name":"Grenoble, Casamaures - Village","parent_station":"CASAVILL","wheelchair_boarding":"available"},"type":"Feature"},{"geometry":{"coordinates":[5.95525,45.35791],"type":"Point"},"properties":{"code":"3163","description":"","id":"3163","name":"Le Touvet, Grandes Terres","parent_station":"TGT","wheelchair_boarding":"available"},"type":"Feature"},{"geometry":{"coordinates":[5.5678,45.34986],"type":"Point"},"properties":{"code":"GENCAF","description":"","id":"CAF","name":"Voiron, Champfeuillet","wheelchair_boarding":"available"},"type":"Feature"},{"geometry":{"coordinates":[5.74536,45.20702],"type":"Point"},"properties":{"code":"245","description":"","id":"245","name":"La Tronche, Grande Tronche","parent_station":"GDTRONCH","wheelchair_boarding":"not available"},"type":"Feature"},{"geometry":{"coordinates":[5.69332,45.06914],"type":"Point"},"properties":{"code":"1063","description":"","id":"1063","name":"Vif, Ecole Reymure","parent_station":"ECOLEREY","wheelchair_boarding":"not available"},"type":"Feature"},{"geometry":{"coordinates":[5.84287,45.16969],"type":"Point"},"properties":{"code":"2339","description":"","id":"2339","name":"Saint-Martin-d'Uriage, Combeloup","parent_station":"COMB","wheelchair_boarding":"available"},"type":"Feature"},{"geometry":{"coordinates":[5.83528,45.20004],"type":"Point"},"properties":{"code":"1770","description":"","id":"1770","name":"Domène, Coubertin","parent_station":"COUBERTI","wheelchair_boarding":"available"},"type":"Feature"},{"geometry":{"coordinates":[5.74053,45.14413],"type":"Point"},"properties":{"code":"4315","description":"","id":"4315","name":"Eybens, Pré au Crêt","parent_station":"PREAUCR","wheelchair_boarding":"not available"},"type":"Feature"},{"geometry":{"coordinates":[5.64332,45.28602],"type":"Point"},"properties":{"code":"2422","description":"","id":"2422","name":"Voreppe, Volouise","parent_station":"VOL","wheelchair_boarding":"available"},"type":"Feature"},{"geometry":{"coordinates":[5.70591,45.18867],"type":"Point"},"properties":{"code":"924","description":"","id":"924","name":"Grenoble, Berriat-Le Magasin","parent_station":"BERRIAT","wheelchair_boarding":"available"},"type":"Feature"},{"geometry":{"coordinates":[5.69102,45.12265],"type":"Point"},"properties":{"code":"GENDRAC","description":"","id":"DRAC","name":"Claix, Mémorial","wheelchair_boarding":"available"},"type":"Feature"},{"geometry":{"coordinates":[5.67447,45.15864],"type":"Point"},"properties":{"code":"GENLEPARL","description":"","id":"LEPARL","name":"Seyssins, Le Parlement","wheelchair_boarding":"available"},"type":"Feature"},{"geometry":{"coordinates":[5.70632,45.17245],"type":"Point"},"properties":{"code":"GENDRSCHWEI","description":"","id":"DRSCHWEI","name":"Grenoble, Docteur Schweitzer","wheelchair_boarding":"available"},"type":"Feature"},{"geometry":{"coordinates":[5.77981,45.21787],"type":"Point"},"properties":{"code":"4914","description":"","id":"4914","name":"Meylan, Ancienne Mairie","parent_station":"ANCMAIRI","wheelchair_boarding":"not available"},"type":"Feature"},{"geometry":{"coordinates":[5.74939,45.10764],"type":"Point"},"properties":{"code":"4737","description":"","id":"4737","name":"Jarrie, Les Chaberts","parent_station":"CHABER","wheelchair_boarding":"not available"},"type":"Feature"},{"geometry":{"coordinates":[5.71292,45.16955],"type":"Point"},"properties":{"code":"716","description":"","id":"716","name":"Grenoble, Louise Michel","parent_station":"LMICHEL","wheelchair_boarding":"available"},"type":"Feature"},{"geometry":{"coordinates":[5.77049,45.13612],"type":"Point"},"properties":{"code":"4119","description":"","id":"4119","name":"Brié-et-Angonnes, Tavernolles","parent_station":"TAVER","wheelchair_boarding":"not available"},"type":"Feature"},{"geometry":{"coordinates":[5.5678,45.34986],"type":"Point"},"properties":{"code":"2406","description":"","id":"2406","name":"Voiron, Champfeuillet","parent_station":"CAF","wheelchair_boarding":"available"},"type":"Feature"},{"geometry":{"coordinates":[5.6458,45.02463],"type":"Point"},"properties":{"code":"1472","description":"","id":"1472","name":"Le Gua, Les Saillants","parent_station":"SAILLANT","wheelchair_boarding":"not available"},"type":"Feature"},{"geometry":{"coordinates":[5.65496,45.07181],"type":"Point"},"properties":{"code":"GENBASCULE","description":"","id":"BASCULE","name":"Saint-Paul-de-Varces, La Bascule","wheelchair_boarding":"available"},"type":"Feature"},{"geometry":{"coordinates":[5.66842,45.13521],"type":"Point"},"properties":{"code":"1892","description":"","id":"1892","name":"Claix, Chemin de l'Abbé","parent_station":"CHEABBE","wheelchair_boarding":"not available"},"type":"Feature"},{"geometry":{"coordinates":[5.93688,45.28637],"type":"Point"},"properties":{"code":"3436","description":"","id":"3436","name":"Le Champ-près-Froges, Champalud","parent_station":"CHF","wheelchair_boarding":"available"},"type":"Feature"},{"geometry":{"coordinates":[5.83508,45.16425],"type":"Point"},"properties":{"code":"2335","description":"","id":"2335","name":"Saint-Martin-d'Uriage, Saint Nizier d'Uriage","parent_station":"SNU","wheelchair_boarding":"available"},"type":"Feature"},{"geometry":{"coordinates":[5.78285,45.11784],"type":"Point"},"properties":{"code":"4132","description":"","id":"4132","name":"Brié-et-Angonnes, L'Olympe","parent_station":"BRIECOLE","wheelchair_boarding":"not available"},"type":"Feature"},{"geometry":{"coordinates":[5.83813,45.20233],"type":"Point"},"properties":{"code":"3485","description":"","id":"3485","name":"Domène, Domène Mairie","parent_station":"DOMENEMA","wheelchair_boarding":"available"},"type":"Feature"},{"geometry":{"coordinates":[5.67453,45.15863],"type":"Point"},"properties":{"code":"1954","description":"","id":"1954","name":"Seyssins, Le Parlement","parent_station":"LEPARL","wheelchair_boarding":"available"},"type":"Feature"},{"geometry":{"coordinates":[5.82078,45.24028],"type":"Point"},"properties":{"code":"GENCOG","description":"","id":"COG","name":"Saint-Ismier, Collège Grésivaudan","wheelchair_boarding":"available"},"type":"Feature"},{"geometry":{"coordinates":[5.82043,45.22387],"type":"Point"},"properties":{"code":"GENPELA","description":"","id":"PELA","name":"Montbonnot-Saint-Martin, Pré de l'Eau","wheelchair_boarding":"available"},"type":"Feature"},{"geometry":{"coordinates":[5.7536,45.217],"type":"Point"},"properties":{"code":"GENMONUMENT","description":"","id":"MONUMENT","name":"Corenc, Monument","wheelchair_boarding":"available"},"type":"Feature"},{"geometry":{"coordinates":[5.71097,45.16429],"type":"Point"},"properties":{"code":"GENSTADLESD","description":"","id":"STADLESD","name":"Grenoble, Stade Lesdiguières","wheelchair_boarding":"available"},"type":"Feature"},{"geometry":{"coordinates":[5.7705,45.09231],"type":"Point"},"properties":{"code":"2275","description":"","id":"2275","name":"Montchaboud, Champ Clocher","parent_station":"CHAMP","wheelchair_boarding":"not available"},"type":"Feature"},{"geometry":{"coordinates":[5.69702,45.17816],"type":"Point"},"properties":{"code":"191","description":"","id":"191","name":"Seyssinet-Pariset, L'Arche","parent_station":"CENTRSOC","wheelchair_boarding":"available"},"type":"Feature"},{"geometry":{"coordinates":[5.79269,45.18207],"type":"Point"},"properties":{"code":"1565","description":"","id":"1565","name":"Gières, Place de la République","parent_station":"PLREPUBL","wheelchair_boarding":"available"},"type":"Feature"},{"geometry":{"coordinates":[5.80746,45.17051],"type":"Point"},"properties":{"code":"GENLACHENAI","description":"","id":"LACHENAI","name":"Venon, La Chênaie","wheelchair_boarding":"available"},"type":"Feature"},{"geometry":{"coordinates":[5.67786,45.19298],"type":"Point"},"properties":{"code":"1665","description":"","id":"1665","name":"Fontaine, Ancienne Mairie","parent_station":"ANCIEMAI","wheelchair_boarding":"available"},"type":"Feature"},{"geometry":{"coordinates":[5.89102,45.26982],"type":"Point"},"properties":{"code":"GENRAF","description":"","id":"RAF","name":"Crolles, Le Rafour - Monnet","wheelchair_boarding":"available"},"type":"Feature"},{"geometry":{"coordinates":[5.75535,45.17929],"type":"Point"},"properties":{"code":"5035","description":"","id":"5035","name":"Saint-Martin-d'Hères, Edouard Vaillant","parent_station":"EDVAILLA","wheelchair_boarding":"available"},"type":"Feature"},{"geometry":{"coordinates":[5.71174,45.19709],"type":"Point"},"properties":{"code":"GENARAGO","description":"","id":"ARAGO","name":"Grenoble, Arago","wheelchair_boarding":"available"},"type":"Feature"},{"geometry":{"coordinates":[5.81077,45.1703],"type":"Point"},"properties":{"code":"GENSOUSPERO","description":"","id":"SOUSPERO","name":"Venon, Sous-Perroud","wheelchair_boarding":"available"},"type":"Feature"},{"geometry":{"coordinates":[5.68938,45.1547],"type":"Point"},"properties":{"code":"1747","description":"","id":"1747","name":"Seyssins, Hameau des Chaumières","parent_station":"CHAUMIER","wheelchair_boarding":"available"},"type":"Feature"},{"geometry":{"coordinates":[5.68935,45.12215],"type":"Point"},"properties":{"code":"1924","description":"","id":"1924","name":"Claix, Fond Ratel","parent_station":"FONDRATE","wheelchair_boarding":"not available"},"type":"Feature"},{"geometry":{"coordinates":[5.74979,45.14733],"type":"Point"},"properties":{"code":"GENEYBMAIRI","description":"","id":"EYBMAIRI","name":"Eybens, Eybens Mairie","wheelchair_boarding":"available"},"type":"Feature"},{"geometry":{"coordinates":[5.76824,45.18438],"type":"Point"},"properties":{"code":"GENCHAMPROM","description":"","id":"CHAMPROM","name":"Saint-Martin-d'Hères, Champ Roman","wheelchair_boarding":"available"},"type":"Feature"},{"geometry":{"coordinates":[5.73535,45.25032],"type":"Point"},"properties":{"code":"4191","description":"","id":"4191","name":"Quaix-en-Chartreuse, Sous La Frette","parent_station":"SOUSFRET","wheelchair_boarding":"not available"},"type":"Feature"},{"geometry":{"coordinates":[5.66714,45.08519],"type":"Point"},"properties":{"code":"GENCHAMBORD","description":"","id":"CHAMBORD","name":"Varces-Allières-et-Risset, Chambord","wheelchair_boarding":"available"},"type":"Feature"},{"geometry":{"coordinates":[5.76482,45.09498],"type":"Point"},"properties":{"code":"GENMONTCHAV","description":"","id":"MONTCHAV","name":"Montchaboud, Montchaboud Le Village","wheelchair_boarding":"available"},"type":"Feature"},{"geometry":{"coordinates":[5.66443,45.20969],"type":"Point"},"properties":{"code":"1361","description":"","id":"1361","name":"Sassenage, Le Gua","parent_station":"LEGUA","wheelchair_boarding":"available"},"type":"Feature"},{"geometry":{"coordinates":[5.84,45.15879],"type":"Point"},"properties":{"code":"GENLROS","description":"","id":"LROS","name":"Saint-Martin-d'Uriage, Le Rossin","wheelchair_boarding":"available"},"type":"Feature"},{"geometry":{"coordinates":[5.71376,45.1593],"type":"Point"},"properties":{"code":"GENLESESSAR","description":"","id":"LESESSAR","name":"Grenoble, Les Essarts","wheelchair_boarding":"available"},"type":"Feature"},{"geometry":{"coordinates":[5.69419,45.19433],"type":"Point"},"properties":{"code":"4911","description":"","id":"4911","name":"Fontaine, Rue Pasteur","parent_station":"RUEPASTE","wheelchair_boarding":"not available"},"type":"Feature"},{"geometry":{"coordinates":[5.7058,45.18849],"type":"Point"},"properties":{"code":"923","description":"","id":"923","name":"Grenoble, Berriat-Le Magasin","parent_station":"BERRIAT","wheelchair_boarding":"available"},"type":"Feature"},{"geometry":{"coordinates":[5.69174,45.22859],"type":"Point"},"properties":{"code":"4919","description":"","id":"4919","name":"Saint-Égrève, Chemin Fiancey","parent_station":"FIANCEY","wheelchair_boarding":"not available"},"type":"Feature"},{"geometry":{"coordinates":[5.74215,45.10097],"type":"Point"},"properties":{"code":"GENCHARBON","description":"","id":"CHARBON","name":"Jarrie, Les Charbonnaux","wheelchair_boarding":"available"},"type":"Feature"},{"geometry":{"coordinates":[5.68237,45.18999],"type":"Point"},"properties":{"code":"1667","description":"","id":"1667","name":"Fontaine, Jean Prévost","parent_station":"JEANPREV","wheelchair_boarding":"available"},"type":"Feature"},{"geometry":{"coordinates":[5.80742,45.21752],"type":"Point"},"properties":{"code":"4527","description":"","id":"4527","name":"Montbonnot-Saint-Martin, INRIA","parent_station":"INRIA","wheelchair_boarding":"not available"},"type":"Feature"},{"geometry":{"coordinates":[5.71816,45.19802],"type":"Point"},"properties":{"code":"5042","description":"","id":"5042","name":"Grenoble, Annie Fratellini - Esplanade","parent_station":"ESPLANAD","wheelchair_boarding":"not available"},"type":"Feature"},{"geometry":{"coordinates":[5.69456,45.17084],"type":"Point"},"properties":{"code":"1655","description":"","id":"1655","name":"Seyssins, Grand Pré - Centre Sud","parent_station":"CENTRESU","wheelchair_boarding":"available"},"type":"Feature"},{"geometry":{"coordinates":[5.67425,45.1084],"type":"Point"},"properties":{"code":"1930","description":"","id":"1930","name":"Varces-Allières-et-Risset, Pavillon","parent_station":"PAVILLON","wheelchair_boarding":"not available"},"type":"Feature"},{"geometry":{"coordinates":[5.67982,45.09503],"type":"Point"},"properties":{"code":"1911","description":"","id":"1911","name":"Varces-Allières-et-Risset, La Giraudière","parent_station":"GIRAUDIE","wheelchair_boarding":"not available"},"type":"Feature"},{"geometry":{"coordinates":[5.684,45.22268],"type":"Point"},"properties":{"code":"1298","description":"","id":"1298","name":"Saint-Égrève, Belledonne","parent_station":"BELLEDON","wheelchair_boarding":"available"},"type":"Feature"},{"geometry":{"coordinates":[5.70606,45.02819],"type":"Point"},"properties":{"code":"2316","description":"","id":"2316","name":"Saint-Georges-de-Commiers, Saint-Pierre Eglise","parent_station":"SAINTPE","wheelchair_boarding":"available"},"type":"Feature"},{"geometry":{"coordinates":[5.69856,45.21372],"type":"Point"},"properties":{"code":"5072","description":"","id":"5072","name":"Saint-Martin-le-Vinoux, Horloge","parent_station":"HORLOGE","wheelchair_boarding":"not available"},"type":"Feature"},{"geometry":{"coordinates":[5.69397,45.14895],"type":"Point"},"properties":{"code":"1733","description":"","id":"1733","name":"Échirolles, Drac","parent_station":"DRAC2","wheelchair_boarding":"available"},"type":"Feature"},{"geometry":{"coordinates":[5.76037,45.18222],"type":"Point"},"properties":{"code":"779","description":"","id":"779","name":"Saint-Martin-d'Hères, Cité Labeye","parent_station":"CITELABE","wheelchair_boarding":"available"},"type":"Feature"},{"geometry":{"coordinates":[5.68813,45.10893],"type":"Point"},"properties":{"code":"1944","description":"","id":"1944","name":"Varces-Allières-et-Risset, Pré de l'Orme","parent_station":"PREORME","wheelchair_boarding":"not available"},"type":"Feature"},{"geometry":{"coordinates":[5.75778,45.11612],"type":"Point"},"properties":{"code":"GENSIMIA","description":"","id":"SIMIA","name":"Jarrie, Les Simianes","wheelchair_boarding":"available"},"type":"Feature"},{"geometry":{"coordinates":[5.76231,45.17826],"type":"Point"},"properties":{"code":"1853","description":"","id":"1853","name":"Saint-Martin-d'Hères, Rocheplane","parent_station":"ROCHEPLA","wheelchair_boarding":"available"},"type":"Feature"},{"geometry":{"coordinates":[5.75789,45.19231],"type":"Point"},"properties":{"code":"2055","description":"","id":"2055","name":"Saint-Martin-d'Hères, Université - Les Taillées","parent_station":"TAILLEES","wheelchair_boarding":"available"},"type":"Feature"},{"geometry":{"coordinates":[5.60439,45.31978],"type":"Point"},"properties":{"code":"2424","description":"","id":"2424","name":"La Buisse, Centr'Alp 2","parent_station":"CALP","wheelchair_boarding":"available"},"type":"Feature"},{"geometry":{"coordinates":[5.64308,45.28662],"type":"Point"},"properties":{"code":"GENVOL","description":"","id":"VOL","name":"Voreppe, Volouise","wheelchair_boarding":"available"},"type":"Feature"},{"geometry":{"coordinates":[5.78421,45.18805],"type":"Point"},"properties":{"code":"GENPLAINEDS","description":"","id":"PLAINEDS","name":"Gières, Plaine des Sports","wheelchair_boarding":"available"},"type":"Feature"},{"geometry":{"coordinates":[5.67937,45.12457],"type":"Point"},"properties":{"code":"2144","description":"","id":"2144","name":"Claix, Les Pérouses","parent_station":"PEROUSES","wheelchair_boarding":"not available"},"type":"Feature"},{"geometry":{"coordinates":[5.718,45.20964],"type":"Point"},"properties":{"code":"GENLESCOMBE","description":"","id":"LESCOMBE","name":"Saint-Martin-le-Vinoux, Les Combes","wheelchair_boarding":"available"},"type":"Feature"},{"geometry":{"coordinates":[5.79359,45.16879],"type":"Point"},"properties":{"code":"4264","description":"","id":"4264","name":"Gières, Les Terrats","parent_station":"TERRATS","wheelchair_boarding":"not available"},"type":"Feature"},{"geometry":{"coordinates":[5.79514,45.17338],"type":"Point"},"properties":{"code":"4902","description":"","id":"4902","name":"Venon, La Frênaie","parent_station":"FRENAIE","wheelchair_boarding":"available"},"type":"Feature"},{"geometry":{"coordinates":[5.95048,45.35987],"type":"Point"},"properties":{"code":"3169","description":"","id":"3169","name":"Le Touvet, Le Touvet Gare","parent_station":"TG","wheelchair_boarding":"available"},"type":"Feature"},{"geometry":{"coordinates":[5.6803,45.15433],"type":"Point"},"properties":{"code":"545","description":"","id":"545","name":"Seyssins, L'Argoud","parent_station":"ARGOUD","wheelchair_boarding":"available"},"type":"Feature"},{"geometry":{"coordinates":[5.66846,45.22773],"type":"Point"},"properties":{"code":"985","description":"","id":"985","name":"Saint-Égrève, Vence EcoParc","parent_station":"VENCEECO","wheelchair_boarding":"available"},"type":"Feature"},{"geometry":{"coordinates":[5.79116,45.22628],"type":"Point"},"properties":{"code":"2138","description":"","id":"2138","name":"Meylan, La Treille","parent_station":"TREILLE","wheelchair_boarding":"not available"},"type":"Feature"},{"geometry":{"coordinates":[5.79257,45.18209],"type":"Point"},"properties":{"code":"GENPLREPUBL","description":"","id":"PLREPUBL","name":"Gières, Place de la République","wheelchair_boarding":"available"},"type":"Feature"},{"geometry":{"coordinates":[5.74997,45.1408],"type":"Point"},"properties":{"code":"314","description":"","id":"314","name":"Bresson, Lagay","parent_station":"LAGAY","wheelchair_boarding":"available"},"type":"Feature"},{"geometry":{"coordinates":[5.70779,45.08729],"type":"Point"},"properties":{"code":"1041","description":"","id":"1041","name":"Varces-Allières-et-Risset, Fontagneux","parent_station":"FONTAGNE","wheelchair_boarding":"not available"},"type":"Feature"},{"geometry":{"coordinates":[5.90608,45.25629],"type":"Point"},"properties":{"code":"3452","description":"","id":"3452","name":"Villard-Bonnot, Brignoud Centre","parent_station":"BPC","wheelchair_boarding":"available"},"type":"Feature"},{"geometry":{"coordinates":[5.72108,45.16771],"type":"Point"},"properties":{"code":"GENMASSENET","description":"","id":"MASSENET","name":"Grenoble, Massenet","wheelchair_boarding":"available"},"type":"Feature"},{"geometry":{"coordinates":[5.64924,45.22961],"type":"Point"},"properties":{"code":"606","description":"","id":"606","name":"Sassenage, Praparis Usine","parent_station":"PRAPARIS","wheelchair_boarding":"available"},"type":"Feature"},{"geometry":{"coordinates":[5.69592,45.18038],"type":"Point"},"properties":{"code":"4613","description":"","id":"4613","name":"Seyssinet-Pariset, Seyssinet-Pariset Hôtel de Ville","parent_station":"SEYHDV","wheelchair_boarding":"available"},"type":"Feature"},{"geometry":{"coordinates":[5.7151,45.18038],"type":"Point"},"properties":{"code":"4043","description":"","id":"4043","name":"Grenoble, Vallier - Libération","parent_station":"VALLIBE","wheelchair_boarding":"not available"},"type":"Feature"},{"geometry":{"coordinates":[5.7786,45.07547],"type":"Point"},"properties":{"code":"GENLESALLAS","description":"","id":"LESALLAS","name":"Vizille, Les Allas","wheelchair_boarding":"available"},"type":"Feature"},{"geometry":{"coordinates":[5.77473,45.13329],"type":"Point"},"properties":{"code":"4121","description":"","id":"4121","name":"Brié-et-Angonnes, L'Enclos","parent_station":"LENCLOS","wheelchair_boarding":"not available"},"type":"Feature"},{"geometry":{"coordinates":[5.8999,45.29903],"type":"Point"},"properties":{"code":"2340","description":"","id":"2340","name":"Crolles, Montfort - Funiculaire","parent_station":"MOF","wheelchair_boarding":"available"},"type":"Feature"},{"geometry":{"coordinates":[5.78601,45.21937],"type":"Point"},"properties":{"code":"656","description":"","id":"656","name":"Meylan, Saint-Mury","parent_station":"STMURY","wheelchair_boarding":"not available"},"type":"Feature"},{"geometry":{"coordinates":[5.76731,45.2122],"type":"Point"},"properties":{"code":"GENRS","description":"","id":"RS","name":"Meylan, Revirée - Sayettes","wheelchair_boarding":"available"},"type":"Feature"},{"geometry":{"coordinates":[5.66002,45.07444],"type":"Point"},"properties":{"code":"1503","description":"","id":"1503","name":"Saint-Paul-de-Varces, Le Poulat","parent_station":"POULAT","wheelchair_boarding":"not available"},"type":"Feature"},{"geometry":{"coordinates":[5.9482,45.35965],"type":"Point"},"properties":{"code":"3170","description":"","id":"3170","name":"Le Touvet, La Charrière","parent_station":"CHARI","wheelchair_boarding":"available"},"type":"Feature"},{"geometry":{"coordinates":[5.66603,45.11525],"type":"Point"},"properties":{"code":"2191","description":"","id":"2191","name":"Claix, Les Pampres","parent_station":"PAMPRES","wheelchair_boarding":"not available"},"type":"Feature"},{"geometry":{"coordinates":[5.66385,45.25823],"type":"Point"},"properties":{"code":"GENFONTCIM","description":"","id":"FONTCIM","name":"Fontanil-Cornillon, Le Fontanil Cimetière","wheelchair_boarding":"available"},"type":"Feature"},{"geometry":{"coordinates":[5.72258,45.19139],"type":"Point"},"properties":{"code":"727","description":"","id":"727","name":"Grenoble, Docteur Mazet","parent_station":"DRMAZET","wheelchair_boarding":"available"},"type":"Feature"},{"geometry":{"coordinates":[5.71095,45.1989],"type":"Point"},"properties":{"code":"889","description":"","id":"889","name":"Grenoble, Cité Jean Macé","parent_station":"CITEMACE","wheelchair_boarding":"available"},"type":"Feature"},{"geometry":{"coordinates":[5.72578,45.23437],"type":"Point"},"properties":{"code":"GENCOLCLEME","description":"","id":"COLCLEME","name":"Saint-Martin-le-Vinoux, Col de Clémencières","wheelchair_boarding":"available"},"type":"Feature"},{"geometry":{"coordinates":[5.7842,45.226],"type":"Point"},"properties":{"code":"1605","description":"","id":"1605","name":"Meylan, Croix de Cibeins","parent_station":"CXCIBENS","wheelchair_boarding":"not available"},"type":"Feature"},{"geometry":{"coordinates":[5.69415,45.17668],"type":"Point"},"properties":{"code":"4614","description":"","id":"4614","name":"Seyssinet-Pariset, Fauconnière","parent_station":"FAUCONNI","wheelchair_boarding":"available"},"type":"Feature"},{"geometry":{"coordinates":[5.77392,45.2115],"type":"Point"},"properties":{"code":"GENFACPHARM","description":"","id":"FACPHARM","name":"Meylan, Faculté de Pharmacie","wheelchair_boarding":"available"},"type":"Feature"},{"geometry":{"coordinates":[5.65053,45.27397],"type":"Point"},"properties":{"code":"2410","description":"","id":"2410","name":"Voreppe, Café Adrait","parent_station":"CAA","wheelchair_boarding":"available"},"type":"Feature"},{"geometry":{"coordinates":[5.74656,45.16666],"type":"Point"},"properties":{"code":"905","description":"","id":"905","name":"Saint-Martin-d'Hères, Pierre Loti","parent_station":"PIERRELO","wheelchair_boarding":"available"},"type":"Feature"},{"geometry":{"coordinates":[5.73822,45.15968],"type":"Point"},"properties":{"code":"1646","description":"","id":"1646","name":"Grenoble, Raymond Chanas","parent_station":"RAYCHANA","wheelchair_boarding":"available"},"type":"Feature"},{"geometry":{"coordinates":[5.70429,45.13789],"type":"Point"},"properties":{"code":"4969","description":"","id":"4969","name":"Le Pont-de-Claix, L'Etoile","parent_station":"LETOILE","wheelchair_boarding":"available"},"type":"Feature"},{"geometry":{"coordinates":[5.83392,45.20736],"type":"Point"},"properties":{"code":"1160","description":"","id":"1160","name":"Domène, Les Vernes","parent_station":"VERNES","wheelchair_boarding":"available"},"type":"Feature"},{"geometry":{"coordinates":[5.62814,45.25606],"type":"Point"},"properties":{"code":"599","description":"","id":"599","name":"Veurey-Voroize, La Cuche","parent_station":"LACUCHE","wheelchair_boarding":"not available"},"type":"Feature"},{"geometry":{"coordinates":[5.78079,45.21312],"type":"Point"},"properties":{"code":"1993","description":"","id":"1993","name":"Meylan, Lycée du Grésivaudan","parent_station":"LYC","wheelchair_boarding":"available"},"type":"Feature"},{"geometry":{"coordinates":[6.01692,45.36735],"type":"Point"},"properties":{"code":"GENMDM","description":"","id":"MDM","name":"Crêts-en-Belledonne, Morêtel-de-Mailles","wheelchair_boarding":"available"},"type":"Feature"},{"geometry":{"coordinates":[5.73288,45.14367],"type":"Point"},"properties":{"code":"1104","description":"","id":"1104","name":"Échirolles, Commanderie","parent_station":"COMMANDE","wheelchair_boarding":"not available"},"type":"Feature"},{"geometry":{"coordinates":[5.77484,45.1333],"type":"Point"},"properties":{"code":"GENLENCLOS","description":"","id":"LENCLOS","name":"Brié-et-Angonnes, L'Enclos","wheelchair_boarding":"available"},"type":"Feature"},{"geometry":{"coordinates":[5.78227,45.2097],"type":"Point"},"properties":{"code":"GENGRA","description":"","id":"GRA","name":"Meylan, Maison de la Musique","wheelchair_boarding":"available"},"type":"Feature"},{"geometry":{"coordinates":[5.75161,45.17894],"type":"Point"},"properties":{"code":"806","description":"","id":"806","name":"Grenoble, Bon Pasteur","parent_station":"BONPASTE","wheelchair_boarding":"available"},"type":"Feature"},{"geometry":{"coordinates":[5.71816,45.14186],"type":"Point"},"properties":{"code":"4310","description":"","id":"4310","name":"Échirolles, Centre du graphisme","parent_station":"GRAPH","wheelchair_boarding":"not available"},"type":"Feature"},{"geometry":{"coordinates":[5.69518,45.07061],"type":"Point"},"properties":{"code":"1059","description":"","id":"1059","name":"Vif, Rue de la Sacristie","parent_station":"SACRISTI","wheelchair_boarding":"not available"},"type":"Feature"},{"geometry":{"coordinates":[5.70111,45.20462],"type":"Point"},"properties":{"code":"2390","description":"","id":"2390","name":"Grenoble, Oxford","parent_station":"OXF","wheelchair_boarding":"available"},"type":"Feature"},{"geometry":{"coordinates":[5.69505,45.19188],"type":"Point"},"properties":{"code":"575","description":"","id":"575","name":"Fontaine, Curie - Vercors","parent_station":"CURIVERC","wheelchair_boarding":"available"},"type":"Feature"},{"geometry":{"coordinates":[5.66763,45.20183],"type":"Point"},"properties":{"code":"GENPREFLEUR","description":"","id":"PREFLEUR","name":"Sassenage, Pré Fleury","wheelchair_boarding":"available"},"type":"Feature"},{"geometry":{"coordinates":[6.07023,45.39381],"type":"Point"},"properties":{"code":"3440","description":"","id":"3440","name":"Allevard, Allevard Écoles","parent_station":"AE","wheelchair_boarding":"available"},"type":"Feature"},{"geometry":{"coordinates":[5.7509,45.17875],"type":"Point"},"properties":{"code":"GENBONPASTE","description":"","id":"BONPASTE","name":"Grenoble, Bon Pasteur","wheelchair_boarding":"available"},"type":"Feature"},{"geometry":{"coordinates":[5.88745,45.3129],"type":"Point"},"properties":{"code":"GENPPCE","description":"","id":"PPCE","name":"Plateau-des-Petites-Roches, Les Croix des Eyrauds","wheelchair_boarding":"available"},"type":"Feature"},{"geometry":{"coordinates":[5.74123,45.20061],"type":"Point"},"properties":{"code":"2050","description":"","id":"2050","name":"Grenoble, Hôpital Couple Enfant","parent_station":"TRONCHOP","wheelchair_boarding":"available"},"type":"Feature"},{"geometry":{"coordinates":[5.66661,45.2404],"type":"Point"},"properties":{"code":"304","description":"","id":"304","name":"Saint-Égrève, Cap 38","parent_station":"CAP38","wheelchair_boarding":"available"},"type":"Feature"},{"geometry":{"coordinates":[5.74174,45.25288],"type":"Point"},"properties":{"code":"GENBASMONT","description":"","id":"BASMONT","name":"Quaix-en-Chartreuse, Bas de Mont-Quaix","wheelchair_boarding":"available"},"type":"Feature"},{"geometry":{"coordinates":[5.73053,45.08675],"type":"Point"},"properties":{"code":"4349","description":"","id":"4349","name":"Champ-sur-Drac, Espace Navarre","parent_station":"ROMANCHE","wheelchair_boarding":"not available"},"type":"Feature"},{"geometry":{"coordinates":[5.87486,45.2273],"type":"Point"},"properties":{"code":"3471","description":"","id":"3471","name":"Le Versoud, Cité Nouvelle","parent_station":"CN","wheelchair_boarding":"available"},"type":"Feature"},{"geometry":{"coordinates":[5.84306,45.1697],"type":"Point"},"properties":{"code":"GENCOMB","description":"","id":"COMB","name":"Saint-Martin-d'Uriage, Combeloup","wheelchair_boarding":"available"},"type":"Feature"},{"geometry":{"coordinates":[5.71059,45.25635],"type":"Point"},"properties":{"code":"4179","description":"","id":"4179","name":"Quaix-en-Chartreuse, Bas de Petesset","parent_station":"BASPET","wheelchair_boarding":"not available"},"type":"Feature"},{"geometry":{"coordinates":[5.85169,45.2474],"type":"Point"},"properties":{"code":"3160","description":"","id":"3160","name":"Saint-Nazaire-les-Eymes, Saint Nazaire les Eymes Mairie","parent_station":"SNM","wheelchair_boarding":"available"},"type":"Feature"},{"geometry":{"coordinates":[5.75785,45.19223],"type":"Point"},"properties":{"code":"3100","description":"","id":"3100","name":"Saint-Martin-d'Hères, Université - Les Taillées","parent_station":"TAILLEES","wheelchair_boarding":"available"},"type":"Feature"},{"geometry":{"coordinates":[5.73245,45.18482],"type":"Point"},"properties":{"code":"1698","description":"","id":"1698","name":"Grenoble, Chavant","parent_station":"CHAVANT","wheelchair_boarding":"available"},"type":"Feature"},{"geometry":{"coordinates":[5.71052,45.20968],"type":"Point"},"properties":{"code":"GENCLOSGRUE","description":"","id":"CLOSGRUE","name":"Saint-Martin-le-Vinoux, Clos Gérard Gruel","wheelchair_boarding":"available"},"type":"Feature"},{"geometry":{"coordinates":[5.68074,45.17052],"type":"Point"},"properties":{"code":"GENSNETVILA","description":"","id":"SNETVILA","name":"Seyssinet-Pariset, Seyssinet Village","wheelchair_boarding":"available"},"type":"Feature"},{"geometry":{"coordinates":[5.7507,45.16403],"type":"Point"},"properties":{"code":"792","description":"","id":"792","name":"Saint-Martin-d'Hères, Le Marais","parent_station":"LEMARAIS","wheelchair_boarding":"available"},"type":"Feature"},{"geometry":{"coordinates":[5.69526,45.18037],"type":"Point"},"properties":{"code":"4682","description":"","id":"4682","name":"Seyssinet-Pariset, Seyssinet-Pariset Hôtel de Ville","parent_station":"SEYHDV","wheelchair_boarding":"not available"},"type":"Feature"},{"geometry":{"coordinates":[6.07168,45.39341],"type":"Point"},"properties":{"code":"3408","description":"","id":"3408","name":"Allevard, Pléiade","parent_station":"ALPL","wheelchair_boarding":"available"},"type":"Feature"},{"geometry":{"coordinates":[5.77538,45.20888],"type":"Point"},"properties":{"code":"394","description":"","id":"394","name":"Meylan, Piscine des Buclos","parent_station":"PISBUCLO","wheelchair_boarding":"available"},"type":"Feature"},{"geometry":{"coordinates":[5.7175,45.20658],"type":"Point"},"properties":{"code":"135","description":"","id":"135","name":"Saint-Martin-le-Vinoux, Les Fauvettes","parent_station":"LESFAUVE","wheelchair_boarding":"not available"},"type":"Feature"},{"geometry":{"coordinates":[5.78092,45.21457],"type":"Point"},"properties":{"code":"GENLGP","description":"","id":"LGP","name":"Meylan, Lycée du Gresivaudan (Parking)","wheelchair_boarding":"available"},"type":"Feature"},{"geometry":{"coordinates":[5.71485,45.19235],"type":"Point"},"properties":{"code":"2352","description":"","id":"2352","name":"Grenoble, Gares","parent_station":"GARES","wheelchair_boarding":"available"},"type":"Feature"},{"geometry":{"coordinates":[5.74151,45.16754],"type":"Point"},"properties":{"code":"831","description":"","id":"831","name":"Grenoble, Jean Racine","parent_station":"JRACINE","wheelchair_boarding":"available"},"type":"Feature"},{"geometry":{"coordinates":[5.84722,45.25097],"type":"Point"},"properties":{"code":"3159","description":"","id":"3159","name":"Saint-Nazaire-les-Eymes, Le Piat","parent_station":"LPIA","wheelchair_boarding":"available"},"type":"Feature"},{"geometry":{"coordinates":[5.89614,45.24694],"type":"Point"},"properties":{"code":"3458","description":"","id":"3458","name":"Villard-Bonnot, La Madone","parent_station":"LMV","wheelchair_boarding":"available"},"type":"Feature"},{"geometry":{"coordinates":[5.6655,45.11022],"type":"Point"},"properties":{"code":"2193","description":"","id":"2193","name":"Claix, La Chanteraie","parent_station":"CHANTERA","wheelchair_boarding":"not available"},"type":"Feature"},{"geometry":{"coordinates":[5.74518,45.18177],"type":"Point"},"properties":{"code":"873","description":"","id":"873","name":"Grenoble, Jeanne d'Arc","parent_station":"JEANNARC","wheelchair_boarding":"available"},"type":"Feature"},{"geometry":{"coordinates":[5.69476,45.24563],"type":"Point"},"properties":{"code":"4362","description":"","id":"4362","name":"Saint-Égrève, Grange Haute","parent_station":"GRANG","wheelchair_boarding":"not available"},"type":"Feature"},{"geometry":{"coordinates":[5.75433,45.18446],"type":"Point"},"properties":{"code":"3092","description":"","id":"3092","name":"Saint-Martin-d'Hères, Maison Communale","parent_station":"MAISONCO","wheelchair_boarding":"available"},"type":"Feature"},{"geometry":{"coordinates":[5.68474,45.05794],"type":"Point"},"properties":{"code":"1127","description":"","id":"1127","name":"Vif, Allée des Granges","parent_station":"ALEGRANG","wheelchair_boarding":"not available"},"type":"Feature"},{"geometry":{"coordinates":[5.97438,45.34218],"type":"Point"},"properties":{"code":"GENGOG","description":"","id":"GOG","name":"Goncelin, Goncelin Gare","wheelchair_boarding":"available"},"type":"Feature"},{"geometry":{"coordinates":[5.74269,45.16518],"type":"Point"},"properties":{"code":"1578","description":"","id":"1578","name":"Eybens, Maisons Neuves","parent_station":"MAISNEUV","wheelchair_boarding":"available"},"type":"Feature"},{"geometry":{"coordinates":[5.8524,45.25086],"type":"Point"},"properties":{"code":"3161","description":"","id":"3161","name":"Saint-Nazaire-les-Eymes, Saint Nazaire les Eymes Gare","parent_station":"SNG","wheelchair_boarding":"available"},"type":"Feature"},{"geometry":{"coordinates":[5.74263,45.17821],"type":"Point"},"properties":{"code":"515","description":"","id":"515","name":"Grenoble, Suzanne Noël - Les Bains","parent_station":"LESBAINS","wheelchair_boarding":"available"},"type":"Feature"},{"geometry":{"coordinates":[5.73614,45.17813],"type":"Point"},"properties":{"code":"GENBAJATIER","description":"","id":"BAJATIER","name":"Grenoble, Bajatière","wheelchair_boarding":"available"},"type":"Feature"},{"geometry":{"coordinates":[5.71271,45.13825],"type":"Point"},"properties":{"code":"1186","description":"","id":"1186","name":"Échirolles, Denis Papin","parent_station":"DENPAPIN","wheelchair_boarding":"available"},"type":"Feature"},{"geometry":{"coordinates":[5.79257,45.18209],"type":"Point"},"properties":{"code":"1566","description":"","id":"1566","name":"Gières, Place de la République","parent_station":"PLREPUBL","wheelchair_boarding":"available"},"type":"Feature"},{"geometry":{"coordinates":[5.69892,45.128],"type":"Point"},"properties":{"code":"1380","description":"","id":"1380","name":"Le Pont-de-Claix, Irène Joliot-Curie","parent_station":"IRENEJOL","wheelchair_boarding":"available"},"type":"Feature"},{"geometry":{"coordinates":[5.71081,45.28231],"type":"Point"},"properties":{"code":"4101","description":"","id":"4101","name":"Proveysieux, Pomarey","parent_station":"POMAREY","wheelchair_boarding":"not available"},"type":"Feature"},{"geometry":{"coordinates":[5.69029,45.1148],"type":"Point"},"properties":{"code":"265","description":"","id":"265","name":"Claix, Carrière","parent_station":"CARRIERE","wheelchair_boarding":"not available"},"type":"Feature"},{"geometry":{"coordinates":[5.73301,45.16897],"type":"Point"},"properties":{"code":"4643","description":"","id":"4643","name":"Grenoble, Malherbe","parent_station":"MALHERBE","wheelchair_boarding":"available"},"type":"Feature"},{"geometry":{"coordinates":[5.70658,45.02466],"type":"Point"},"properties":{"code":"GENPREBIL","description":"","id":"PREBIL","name":"Saint-Georges-de-Commiers, Pré du Bil","wheelchair_boarding":"available"},"type":"Feature"},{"geometry":{"coordinates":[5.72454,45.18977],"type":"Point"},"properties":{"code":"907","description":"","id":"907","name":"Grenoble, Victor Hugo","parent_station":"VICTHUGO","wheelchair_boarding":"not available"},"type":"Feature"},{"geometry":{"coordinates":[5.71744,45.18593],"type":"Point"},"properties":{"code":"GENCHORCOND","description":"","id":"CHORCOND","name":"Grenoble, Estacade","wheelchair_boarding":"available"},"type":"Feature"},{"geometry":{"coordinates":[5.75107,45.23401],"type":"Point"},"properties":{"code":"4158","description":"","id":"4158","name":"Corenc, Col de Vence","parent_station":"COLVENCE","wheelchair_boarding":"not available"},"type":"Feature"},{"geometry":{"coordinates":[5.69437,45.18077],"type":"Point"},"properties":{"code":"GENBOUCHDV","description":"","id":"BOUCHDV","name":"Seyssinet-Pariset, Bouchayer - Hôtel de Ville","wheelchair_boarding":"available"},"type":"Feature"},{"geometry":{"coordinates":[5.69959,45.07462],"type":"Point"},"properties":{"code":"1058","description":"","id":"1058","name":"Vif, Le Refuge","parent_station":"LEREFUGE","wheelchair_boarding":"not available"},"type":"Feature"},{"geometry":{"coordinates":[5.64494,45.07055],"type":"Point"},"properties":{"code":"GENCROIX","description":"","id":"CROIX","name":"Saint-Paul-de-Varces, La Croix","wheelchair_boarding":"available"},"type":"Feature"},{"geometry":{"coordinates":[5.73777,45.18749],"type":"Point"},"properties":{"code":"2241","description":"","id":"2241","name":"Grenoble, Grenoble Hôtel de Ville","parent_station":"GREHOTEL","wheelchair_boarding":"available"},"type":"Feature"},{"geometry":{"coordinates":[5.79781,45.22485],"type":"Point"},"properties":{"code":"1725","description":"","id":"1725","name":"Montbonnot-Saint-Martin, Avenue du Général de Gaulle","parent_station":"AGD","wheelchair_boarding":"available"},"type":"Feature"},{"geometry":{"coordinates":[5.73409,45.18259],"type":"Point"},"properties":{"code":"1765","description":"","id":"1765","name":"Grenoble, Driant","parent_station":"DRIANT","wheelchair_boarding":"available"},"type":"Feature"},{"geometry":{"coordinates":[5.75297,45.20135],"type":"Point"},"properties":{"code":"292","description":"","id":"292","name":"La Tronche, Doyen Gosse","parent_station":"DOYENGOS","wheelchair_boarding":"available"},"type":"Feature"},{"geometry":{"coordinates":[5.74184,45.20123],"type":"Point"},"properties":{"code":"GENTRONCHOP","description":"","id":"TRONCHOP","name":"La Tronche, Hôpital Couple Enfant","wheelchair_boarding":"available"},"type":"Feature"},{"geometry":{"coordinates":[5.67997,45.15386],"type":"Point"},"properties":{"code":"544","description":"","id":"544","name":"Seyssins, L'Argoud","parent_station":"ARGOUD","wheelchair_boarding":"available"},"type":"Feature"},{"geometry":{"coordinates":[5.72684,45.18766],"type":"Point"},"properties":{"code":"754","description":"","id":"754","name":"Grenoble, Docteur Martin","parent_station":"DRMARTIN","wheelchair_boarding":"available"},"type":"Feature"},{"geometry":{"coordinates":[5.66558,45.11178],"type":"Point"},"properties":{"code":"2192","description":"","id":"2192","name":"Claix, Bellevue","parent_station":"BELLEVUE","wheelchair_boarding":"not available"},"type":"Feature"},{"geometry":{"coordinates":[5.75051,45.11601],"type":"Point"},"properties":{"code":"4144","description":"","id":"4144","name":"Jarrie, Les Thévenets","parent_station":"THEVE","wheelchair_boarding":"not available"},"type":"Feature"},{"geometry":{"coordinates":[5.76988,45.18878],"type":"Point"},"properties":{"code":"2918","description":"","id":"2918","name":"Les Alpilles","parent_station":"PROMOSOC","wheelchair_boarding":"available"},"type":"Feature"},{"geometry":{"coordinates":[5.71818,45.14948],"type":"Point"},"properties":{"code":"GENRAMPE","description":"","id":"RAMPE","name":"Échirolles, La Rampe - Centre-Ville","wheelchair_boarding":"available"},"type":"Feature"},{"geometry":{"coordinates":[5.66499,45.20446],"type":"Point"},"properties":{"code":"GENTREFFORI","description":"","id":"TREFFORI","name":"Sassenage, Trefforine","wheelchair_boarding":"available"},"type":"Feature"},{"geometry":{"coordinates":[5.68574,45.21484],"type":"Point"},"properties":{"code":"1691","description":"","id":"1691","name":"Saint-Martin-le-Vinoux, Louis Gagnière","parent_station":"GAGNIERE","wheelchair_boarding":"not available"},"type":"Feature"},{"geometry":{"coordinates":[5.64968,45.21137],"type":"Point"},"properties":{"code":"1859","description":"","id":"1859","name":"Sassenage, Vieux donjon","parent_station":"VIEUXDON","wheelchair_boarding":"not available"},"type":"Feature"},{"geometry":{"coordinates":[5.7773,45.25954],"type":"Point"},"properties":{"code":"4163","description":"","id":"4163","name":"Le Sappey-en-Chartreuse, Le Sappey-en-Chartreuse Place","parent_station":"PLACESAP","wheelchair_boarding":"not available"},"type":"Feature"},{"geometry":{"coordinates":[5.78561,45.18542],"type":"Point"},"properties":{"code":"3062","description":"","id":"3062","name":"Gières, Gières Gare - Université","parent_station":"GIERGARE","wheelchair_boarding":"available"},"type":"Feature"},{"geometry":{"coordinates":[5.76858,45.07716],"type":"Point"},"properties":{"code":"GENLESFORGE","description":"","id":"LESFORGE","name":"Vizille, Les Forges","wheelchair_boarding":"available"},"type":"Feature"},{"geometry":{"coordinates":[5.7096,45.16024],"type":"Point"},"properties":{"code":"722","description":"","id":"722","name":"Grenoble, Marielle Franco - Rondeau","parent_station":"RONDEAU","wheelchair_boarding":"available"},"type":"Feature"},{"geometry":{"coordinates":[5.74249,45.17889],"type":"Point"},"properties":{"code":"901","description":"","id":"901","name":"Grenoble, Suzanne Noël - Les Bains","parent_station":"LESBAINS","wheelchair_boarding":"available"},"type":"Feature"},{"geometry":{"coordinates":[5.67982,45.09503],"type":"Point"},"properties":{"code":"GENGIRAUDIE","description":"","id":"GIRAUDIE","name":"Varces-Allières-et-Risset, La Giraudière","wheelchair_boarding":"available"},"type":"Feature"},{"geometry":{"coordinates":[5.74417,45.09462],"type":"Point"},"properties":{"code":"GENANMAL","description":"","id":"ANMAL","name":"Jarrie, André Malraux","wheelchair_boarding":"available"},"type":"Feature"},{"geometry":{"coordinates":[5.73575,45.19659],"type":"Point"},"properties":{"code":"4575","description":"","id":"4575","name":"Grenoble, Ile Verte","parent_station":"ILEVERTE","wheelchair_boarding":"available"},"type":"Feature"},{"geometry":{"coordinates":[5.68975,45.15765],"type":"Point"},"properties":{"code":"GENBOURNET","description":"","id":"BOURNET","name":"Seyssins, Le Bournet","wheelchair_boarding":"available"},"type":"Feature"},{"geometry":{"coordinates":[5.72187,45.2177],"type":"Point"},"properties":{"code":"89","description":"","id":"89","name":"Saint-Martin-le-Vinoux, Mas Caché","parent_station":"LEMASGAC","wheelchair_boarding":"not available"},"type":"Feature"},{"geometry":{"coordinates":[5.84389,45.26134],"type":"Point"},"properties":{"code":"2360","description":"","id":"2360","name":"Saint-Nazaire-les-Eymes, Les Tourterelles","parent_station":"EYT","wheelchair_boarding":"available"},"type":"Feature"},{"geometry":{"coordinates":[5.67704,45.19647],"type":"Point"},"properties":{"code":"GENGERARPHI","description":"","id":"GERARPHI","name":"Fontaine, Gérard Philipe","wheelchair_boarding":"available"},"type":"Feature"},{"geometry":{"coordinates":[5.77101,45.05769],"type":"Point"},"properties":{"code":"6806","description":"","id":"6806","name":"Vizille, Le Péage","parent_station":"PEAGEDEV","wheelchair_boarding":"not available"},"type":"Feature"},{"geometry":{"coordinates":[5.79453,45.20928],"type":"Point"},"properties":{"code":"1546","description":"","id":"1546","name":"Meylan, Norbert Ségard","parent_station":"NORBSEGA","wheelchair_boarding":"not available"},"type":"Feature"},{"geometry":{"coordinates":[5.71422,45.17338],"type":"Point"},"properties":{"code":"4305","description":"","id":"4305","name":"Grenoble, Alliés","parent_station":"ALLIES","wheelchair_boarding":"available"},"type":"Feature"},{"geometry":{"coordinates":[5.6777,45.08933],"type":"Point"},"properties":{"code":"GENPLATANES","description":"","id":"PLATANES","name":"Varces-Allières-et-Risset, Les Platanes","wheelchair_boarding":"available"},"type":"Feature"},{"geometry":{"coordinates":[5.79002,45.1741],"type":"Point"},"properties":{"code":"4267","description":"","id":"4267","name":"Gières, La Combe","parent_station":"LACOMBE","wheelchair_boarding":"not available"},"type":"Feature"},{"geometry":{"coordinates":[5.84845,45.15868],"type":"Point"},"properties":{"code":"2363","description":"","id":"2363","name":"Saint-Martin-d'Uriage, Le Penet","parent_station":"LPE","wheelchair_boarding":"available"},"type":"Feature"},{"geometry":{"coordinates":[5.66112,45.21501],"type":"Point"},"properties":{"code":"GENROLLANDI","description":"","id":"ROLLANDI","name":"Sassenage, La Rollandière","wheelchair_boarding":"available"},"type":"Feature"},{"geometry":{"coordinates":[5.73151,45.18827],"type":"Point"},"properties":{"code":"2018","description":"","id":"2018","name":"Grenoble, Verdun - Préfecture","parent_station":"VERDUN","wheelchair_boarding":"available"},"type":"Feature"},{"geometry":{"coordinates":[5.71139,45.19125],"type":"Point"},"properties":{"code":"802","description":"","id":"802","name":"Grenoble, Palais de Justice - Gare","parent_station":"PALJUSTI","wheelchair_boarding":"available"},"type":"Feature"},{"geometry":{"coordinates":[5.67506,45.07057],"type":"Point"},"properties":{"code":"GENPELISIER","description":"","id":"PELISIER","name":"Varces-Allières-et-Risset, Pélissière","wheelchair_boarding":"available"},"type":"Feature"},{"geometry":{"coordinates":[5.71847,45.19073],"type":"Point"},"properties":{"code":"895","description":"","id":"895","name":"Grenoble, Félix Viallet","parent_station":"FELIXVIA","wheelchair_boarding":"available"},"type":"Feature"},{"geometry":{"coordinates":[5.67659,45.10788],"type":"Point"},"properties":{"code":"2300","description":"","id":"2300","name":"Varces-Allières-et-Risset, Les Lilas","parent_station":"LILAS","wheelchair_boarding":"available"},"type":"Feature"},{"geometry":{"coordinates":[5.7927,45.22282],"type":"Point"},"properties":{"code":"201","description":"","id":"201","name":"Meylan, La Détourbe","parent_station":"DETOURBE","wheelchair_boarding":"available"},"type":"Feature"},{"geometry":{"coordinates":[5.78098,45.17897],"type":"Point"},"properties":{"code":"335","description":"","id":"335","name":"Gières, Roseraie","parent_station":"ROSERAIE","wheelchair_boarding":"available"},"type":"Feature"},{"geometry":{"coordinates":[5.72671,45.14732],"type":"Point"},"properties":{"code":"GENCHATEAU","description":"","id":"CHATEAU","name":"Échirolles, Le Château","wheelchair_boarding":"available"},"type":"Feature"},{"geometry":{"coordinates":[5.72403,45.16073],"type":"Point"},"properties":{"code":"733","description":"","id":"733","name":"Grenoble, Christophe Turc","parent_station":"CHRISTUR","wheelchair_boarding":"available"},"type":"Feature"},{"geometry":{"coordinates":[5.77515,45.08233],"type":"Point"},"properties":{"code":"GENGRIMPI","description":"","id":"GRIMPI","name":"Vizille, Le Grimpillon","wheelchair_boarding":"available"},"type":"Feature"},{"geometry":{"coordinates":[5.63425,45.23891],"type":"Point"},"properties":{"code":"603","description":"","id":"603","name":"Noyarey, Saint-Jean","parent_station":"NOYARSTJ","wheelchair_boarding":"available"},"type":"Feature"},{"geometry":{"coordinates":[5.80262,45.17409],"type":"Point"},"properties":{"code":"GENLAVILLE","description":"","id":"LAVILLE","name":"Venon, La Ville","wheelchair_boarding":"available"},"type":"Feature"},{"geometry":{"coordinates":[5.69417,45.19438],"type":"Point"},"properties":{"code":"4912","description":"","id":"4912","name":"Fontaine, Rue Pasteur","parent_station":"RUEPASTE","wheelchair_boarding":"available"},"type":"Feature"},{"geometry":{"coordinates":[5.64749,45.21007],"type":"Point"},"properties":{"code":"2159","description":"","id":"2159","name":"Sassenage, Les Côtes","parent_station":"COTESASS","wheelchair_boarding":"available"},"type":"Feature"},{"geometry":{"coordinates":[5.70587,45.02858],"type":"Point"},"properties":{"code":"2317","description":"","id":"2317","name":"Saint-Georges-de-Commiers, Saint-Pierre Eglise","parent_station":"SAINTPE","wheelchair_boarding":"available"},"type":"Feature"},{"geometry":{"coordinates":[5.69213,45.06686],"type":"Point"},"properties":{"code":"1073","description":"","id":"1073","name":"Vif, La Plaine","parent_station":"PLAINE","wheelchair_boarding":"not available"},"type":"Feature"},{"geometry":{"coordinates":[5.68355,45.08937],"type":"Point"},"properties":{"code":"GENORIEL","description":"","id":"ORIEL","name":"Varces-Allières-et-Risset, L'Oriel","wheelchair_boarding":"available"},"type":"Feature"},{"geometry":{"coordinates":[5.70172,45.14879],"type":"Point"},"properties":{"code":"1088","description":"","id":"1088","name":"Échirolles, Musée Géo Charles","parent_station":"MUSGEOCH","wheelchair_boarding":"available"},"type":"Feature"},{"geometry":{"coordinates":[5.71384,45.18836],"type":"Point"},"properties":{"code":"2031","description":"","id":"2031","name":"Grenoble, Saint-Bruno","parent_station":"STBRUNO","wheelchair_boarding":"available"},"type":"Feature"},{"geometry":{"coordinates":[5.72467,45.22225],"type":"Point"},"properties":{"code":"83","description":"","id":"83","name":"Saint-Martin-le-Vinoux, Lachal","parent_station":"LACHAL","wheelchair_boarding":"not available"},"type":"Feature"},{"geometry":{"coordinates":[5.90485,45.34161],"type":"Point"},"properties":{"code":"3129","description":"","id":"3129","name":"Plateau-des-Petites-Roches, Le Terrail","parent_station":"PPTE","wheelchair_boarding":"available"},"type":"Feature"},{"geometry":{"coordinates":[5.69708,45.18078],"type":"Point"},"properties":{"code":"1654","description":"","id":"1654","name":"Seyssinet-Pariset, Seyssinet-Pariset Hôtel de Ville","parent_station":"SEYHDV","wheelchair_boarding":"available"},"type":"Feature"},{"geometry":{"coordinates":[5.71035,45.19872],"type":"Point"},"properties":{"code":"4384","description":"","id":"4384","name":"Grenoble, Durant-Savoyat","parent_station":"DURANT","wheelchair_boarding":"available"},"type":"Feature"},{"geometry":{"coordinates":[5.76392,45.17563],"type":"Point"},"properties":{"code":"GENHENRIWAL","description":"","id":"HENRIWAL","name":"Saint-Martin-d'Hères, Henri Wallon","wheelchair_boarding":"available"},"type":"Feature"},{"geometry":{"coordinates":[5.7083,45.17441],"type":"Point"},"properties":{"code":"1573","description":"","id":"1573","name":"Grenoble, Henri Dunant","parent_station":"HDUNANT","wheelchair_boarding":"available"},"type":"Feature"},{"geometry":{"coordinates":[5.70689,45.15166],"type":"Point"},"properties":{"code":"1216","description":"","id":"1216","name":"Échirolles, Quinzaine","parent_station":"QUINZAIN","wheelchair_boarding":"available"},"type":"Feature"},{"geometry":{"coordinates":[5.70122,45.20481],"type":"Point"},"properties":{"code":"2389","description":"","id":"2389","name":"Grenoble, Oxford","parent_station":"OXF","wheelchair_boarding":"available"},"type":"Feature"},{"geometry":{"coordinates":[5.73691,45.16987],"type":"Point"},"properties":{"code":"798","description":"","id":"798","name":"Grenoble, Louis Jouvet","parent_station":"LOUISJOU","wheelchair_boarding":"available"},"type":"Feature"},{"geometry":{"coordinates":[5.88745,45.3129],"type":"Point"},"properties":{"code":"3111","description":"","id":"3111","name":"Plateau-des-Petites-Roches, Les Croix des Eyrauds","parent_station":"PPCE","wheelchair_boarding":"available"},"type":"Feature"},{"geometry":{"coordinates":[5.74016,45.17081],"type":"Point"},"properties":{"code":"GENTEISSEIR","description":"","id":"TEISSEIR","name":"Grenoble, Teisseire","wheelchair_boarding":"available"},"type":"Feature"},{"geometry":{"coordinates":[5.63181,45.24971],"type":"Point"},"properties":{"code":"601","description":"","id":"601","name":"Noyarey, Le Ruisset","parent_station":"RUISSET","wheelchair_boarding":"available"},"type":"Feature"},{"geometry":{"coordinates":[5.68359,45.08984],"type":"Point"},"properties":{"code":"1936","description":"","id":"1936","name":"Varces-Allières-et-Risset, L'Oriel","parent_station":"ORIEL","wheelchair_boarding":"available"},"type":"Feature"},{"geometry":{"coordinates":[5.71908,45.22494],"type":"Point"},"properties":{"code":"158","description":"","id":"158","name":"Saint-Martin-le-Vinoux, Gatinet","parent_station":"LEGATINE","wheelchair_boarding":"not available"},"type":"Feature"},{"geometry":{"coordinates":[5.67442,45.27158],"type":"Point"},"properties":{"code":"GENFOCHAIRE","description":"","id":"FOCHAIRE","name":"Mont-Saint-Martin, Fochaire","wheelchair_boarding":"available"},"type":"Feature"},{"geometry":{"coordinates":[5.78755,45.18149],"type":"Point"},"properties":{"code":"333","description":"","id":"333","name":"Gières, Edelweiss","parent_station":"EDELWEIS","wheelchair_boarding":"available"},"type":"Feature"},{"geometry":{"coordinates":[5.81647,45.19187],"type":"Point"},"properties":{"code":"GENBOURG","description":"","id":"BOURG","name":"Murianette, Le Bourg","wheelchair_boarding":"available"},"type":"Feature"},{"geometry":{"coordinates":[5.68039,45.15141],"type":"Point"},"properties":{"code":"GENPRENOUVE","description":"","id":"PRENOUVE","name":"Seyssins, Pré Nouvel","wheelchair_boarding":"available"},"type":"Feature"},{"geometry":{"coordinates":[5.74558,45.15905],"type":"Point"},"properties":{"code":"GENVALEYBEN","description":"","id":"VALEYBEN","name":"Eybens, Val d'Eybens","wheelchair_boarding":"available"},"type":"Feature"},{"geometry":{"coordinates":[5.78973,45.22996],"type":"Point"},"properties":{"code":"36","description":"","id":"36","name":"Meylan, Montlivet","parent_station":"MONTLIVE","wheelchair_boarding":"not available"},"type":"Feature"},{"geometry":{"coordinates":[5.70371,45.13785],"type":"Point"},"properties":{"code":"3393","description":"","id":"3393","name":"Le Pont-de-Claix, L'Etoile","parent_station":"LETOILE","wheelchair_boarding":"not available"},"type":"Feature"},{"geometry":{"coordinates":[5.75525,45.16106],"type":"Point"},"properties":{"code":"GENBELAIR","description":"","id":"BELAIR","name":"Eybens, Bel Air","wheelchair_boarding":"available"},"type":"Feature"},{"geometry":{"coordinates":[5.79467,45.17542],"type":"Point"},"properties":{"code":"GENLAFAURIE","description":"","id":"LAFAURIE","name":"Venon, La Faurie","wheelchair_boarding":"available"},"type":"Feature"},{"geometry":{"coordinates":[5.85764,45.17334],"type":"Point"},"properties":{"code":"GENCHENE","description":"","id":"CHENE","name":"Saint-Martin-d'Uriage, La Chenevarie","wheelchair_boarding":"available"},"type":"Feature"},{"geometry":{"coordinates":[5.74645,45.10558],"type":"Point"},"properties":{"code":"GENMAUPERTJ","description":"","id":"MAUPERTJ","name":"Jarrie, Maupertuis","wheelchair_boarding":"available"},"type":"Feature"},{"geometry":{"coordinates":[5.69055,45.16639],"type":"Point"},"properties":{"code":"GENPRISME","description":"","id":"PRISME","name":"Seyssins, Le Prisme","wheelchair_boarding":"available"},"type":"Feature"},{"geometry":{"coordinates":[5.68315,45.08684],"type":"Point"},"properties":{"code":"2104","description":"","id":"2104","name":"Varces-Allières-et-Risset, République","parent_station":"VARCESRE","wheelchair_boarding":"available"},"type":"Feature"},{"geometry":{"coordinates":[5.64977,45.21138],"type":"Point"},"properties":{"code":"1860","description":"","id":"1860","name":"Sassenage, Vieux donjon","parent_station":"VIEUXDON","wheelchair_boarding":"not available"},"type":"Feature"},{"geometry":{"coordinates":[5.66297,45.07973],"type":"Point"},"properties":{"code":"1505","description":"","id":"1505","name":"Saint-Paul-de-Varces, Le Meinget","parent_station":"MEINGET","wheelchair_boarding":"not available"},"type":"Feature"},{"geometry":{"coordinates":[5.68324,45.10448],"type":"Point"},"properties":{"code":"GENPRESAGE","description":"","id":"PRESAGE","name":"Varces-Allières-et-Risset, Pré du Sage","wheelchair_boarding":"available"},"type":"Feature"},{"geometry":{"coordinates":[5.71507,45.22001],"type":"Point"},"properties":{"code":"GENLARIVOIR","description":"","id":"LARIVOIR","name":"Saint-Martin-le-Vinoux, La Rivoire","wheelchair_boarding":"available"},"type":"Feature"},{"geometry":{"coordinates":[5.73168,45.18454],"type":"Point"},"properties":{"code":"2255","description":"","id":"2255","name":"Grenoble, Chavant","parent_station":"CHAVANT","wheelchair_boarding":"available"},"type":"Feature"},{"geometry":{"coordinates":[5.70732,45.27608],"type":"Point"},"properties":{"code":"4095","description":"","id":"4095","name":"Proveysieux, Pont du Gua","parent_station":"EGREGUA","wheelchair_boarding":"not available"},"type":"Feature"},{"geometry":{"coordinates":[5.75888,45.22728],"type":"Point"},"properties":{"code":"560","description":"","id":"560","name":"Corenc, Batonnière","parent_station":"CHEMBATO","wheelchair_boarding":"not available"},"type":"Feature"},{"geometry":{"coordinates":[5.85869,45.26376],"type":"Point"},"properties":{"code":"1795","description":"","id":"1795","name":"Bernin, Les Varvoux","parent_station":"VAX","wheelchair_boarding":"available"},"type":"Feature"},{"geometry":{"coordinates":[5.71433,45.20341],"type":"Point"},"properties":{"code":"GEN16AOUT44","description":"","id":"16AOUT44","name":"Saint-Martin-le-Vinoux, Résistance","wheelchair_boarding":"available"},"type":"Feature"},{"geometry":{"coordinates":[5.68023,45.20763],"type":"Point"},"properties":{"code":"1598","description":"","id":"1598","name":"Sassenage, Maladière","parent_station":"MALADIER","wheelchair_boarding":"not available"},"type":"Feature"},{"geometry":{"coordinates":[5.97135,45.33235],"type":"Point"},"properties":{"code":"GENVB","description":"","id":"VB","name":"Goncelin, Villard Bozon","wheelchair_boarding":"available"},"type":"Feature"},{"geometry":{"coordinates":[5.71848,45.15302],"type":"Point"},"properties":{"code":"GENECHIGARE","description":"","id":"ECHIGARE","name":"Échirolles, Echirolles Gare","wheelchair_boarding":"available"},"type":"Feature"},{"geometry":{"coordinates":[5.95048,45.35987],"type":"Point"},"properties":{"code":"GENTG","description":"","id":"TG","name":"Le Touvet, Le Touvet Gare","wheelchair_boarding":"available"},"type":"Feature"},{"geometry":{"coordinates":[5.66899,45.11962],"type":"Point"},"properties":{"code":"GENBOULODRO","description":"","id":"BOULODRO","name":"Claix, Boulodrome-Ecole","wheelchair_boarding":"available"},"type":"Feature"},{"geometry":{"coordinates":[5.68264,45.23008],"type":"Point"},"properties":{"code":"5079","description":"","id":"5079","name":"Saint-Égrève, Pont de Vence","parent_station":"PTVENCE","wheelchair_boarding":"not available"},"type":"Feature"},{"geometry":{"coordinates":[5.70026,45.13197],"type":"Point"},"properties":{"code":"GENILESMARS","description":"","id":"ILESMARS","name":"Le Pont-de-Claix, Iles de Mars","wheelchair_boarding":"available"},"type":"Feature"},{"geometry":{"coordinates":[5.67678,45.14524],"type":"Point"},"properties":{"code":"GENCIG","description":"","id":"CIG","name":"Seyssins, Garlettes","wheelchair_boarding":"available"},"type":"Feature"},{"geometry":{"coordinates":[5.85889,45.29137],"type":"Point"},"properties":{"code":"GENPPS","description":"","id":"PPS","name":"Plateau-des-Petites-Roches, Saint-Pancrasse Mairie","wheelchair_boarding":"available"},"type":"Feature"},{"geometry":{"coordinates":[5.84135,45.25449],"type":"Point"},"properties":{"code":"2152","description":"","id":"2152","name":"Saint-Ismier, Le Mémorial","parent_station":"MEMO","wheelchair_boarding":"available"},"type":"Feature"},{"geometry":{"coordinates":[5.81043,45.17254],"type":"Point"},"properties":{"code":"64","description":"","id":"64","name":"Venon, Le Perroud","parent_station":"LEPERROU","wheelchair_boarding":"not available"},"type":"Feature"},{"geometry":{"coordinates":[5.69707,45.17985],"type":"Point"},"properties":{"code":"4612","description":"","id":"4612","name":"Seyssinet-Pariset, Seyssinet-Pariset Hôtel de Ville","parent_station":"SEYHDV","wheelchair_boarding":"available"},"type":"Feature"},{"geometry":{"coordinates":[5.79043,45.17823],"type":"Point"},"properties":{"code":"GENPV","description":"","id":"PV","name":"Gières, Pont de Venon","wheelchair_boarding":"available"},"type":"Feature"},{"geometry":{"coordinates":[5.85123,45.29011],"type":"Point"},"properties":{"code":"2364","description":"","id":"2364","name":"Plateau-des-Petites-Roches, Les Meunières","parent_station":"PPME","wheelchair_boarding":"available"},"type":"Feature"},{"geometry":{"coordinates":[5.7116,45.1497],"type":"Point"},"properties":{"code":"1561","description":"","id":"1561","name":"Échirolles, Les Glières","parent_station":"GLIERES","wheelchair_boarding":"not available"},"type":"Feature"},{"geometry":{"coordinates":[5.67704,45.19647],"type":"Point"},"properties":{"code":"614","description":"","id":"614","name":"Fontaine, Gérard Philipe","parent_station":"GERARPHI","wheelchair_boarding":"available"},"type":"Feature"},{"geometry":{"coordinates":[5.7479,45.11776],"type":"Point"},"properties":{"code":"GENLEPLATR","description":"","id":"LEPLATR","name":"Jarrie, Le Plâtre","wheelchair_boarding":"available"},"type":"Feature"},{"geometry":{"coordinates":[5.74633,45.10561],"type":"Point"},"properties":{"code":"4859","description":"","id":"4859","name":"Jarrie, Maupertuis","parent_station":"MAUPERTJ","wheelchair_boarding":"not available"},"type":"Feature"},{"geometry":{"coordinates":[5.72057,45.14133],"type":"Point"},"properties":{"code":"1166","description":"","id":"1166","name":"Échirolles, Le Village","parent_station":"VILLAGE","wheelchair_boarding":"available"},"type":"Feature"},{"geometry":{"coordinates":[5.70369,45.20279],"type":"Point"},"properties":{"code":"4019","description":"","id":"4019","name":"Grenoble, Marie-Louise Paris - CEA","parent_station":"CEACAMB","wheelchair_boarding":"available"},"type":"Feature"},{"geometry":{"coordinates":[5.78511,45.12799],"type":"Point"},"properties":{"code":"GENSOUVEVI","description":"","id":"SOUVEVI","name":"Brié-et-Angonnes, Le Coin","wheelchair_boarding":"available"},"type":"Feature"},{"geometry":{"coordinates":[5.73059,45.08869],"type":"Point"},"properties":{"code":"4894","description":"","id":"4894","name":"Jarrie, Pont de Champ","parent_station":"PONC","wheelchair_boarding":"available"},"type":"Feature"},{"geometry":{"coordinates":[5.69015,45.08732],"type":"Point"},"properties":{"code":"1019","description":"","id":"1019","name":"Varces-Allières-et-Risset, Notre-Dame de Lachal","parent_station":"NODAMLAC","wheelchair_boarding":"not available"},"type":"Feature"},{"geometry":{"coordinates":[5.78685,45.21888],"type":"Point"},"properties":{"code":"1873","description":"","id":"1873","name":"Meylan, Saint-Mury","parent_station":"STMURY","wheelchair_boarding":"available"},"type":"Feature"},{"geometry":{"coordinates":[5.71423,45.14336],"type":"Point"},"properties":{"code":"4685","description":"","id":"4685","name":"Échirolles, Auguste Delaune","parent_station":"ADELAUNE","wheelchair_boarding":"available"},"type":"Feature"},{"geometry":{"coordinates":[5.6814,45.1564],"type":"Point"},"properties":{"code":"1977","description":"","id":"1977","name":"Seyssins, Seyssins Village","parent_station":"PLV","wheelchair_boarding":"available"},"type":"Feature"},{"geometry":{"coordinates":[5.77111,45.25474],"type":"Point"},"properties":{"code":"GENLEGOUILL","description":"","id":"LEGOUILL","name":"Le Sappey-en-Chartreuse, Le Gouillat","wheelchair_boarding":"available"},"type":"Feature"},{"geometry":{"coordinates":[5.78724,45.11075],"type":"Point"},"properties":{"code":"4136","description":"","id":"4136","name":"Brié-et-Angonnes, Brié Église","parent_station":"BRIEGLIS","wheelchair_boarding":"not available"},"type":"Feature"},{"geometry":{"coordinates":[5.75142,45.16605],"type":"Point"},"properties":{"code":"GENCHOPIN","description":"","id":"CHOPIN","name":"Saint-Martin-d'Hères, Chopin","wheelchair_boarding":"available"},"type":"Feature"},{"geometry":{"coordinates":[5.68819,45.06078],"type":"Point"},"properties":{"code":"GENMASGARNI","description":"","id":"MASGARNI","name":"Vif, Mas Garni","wheelchair_boarding":"available"},"type":"Feature"},{"geometry":{"coordinates":[5.75861,45.2734],"type":"Point"},"properties":{"code":"GENSARCENA","description":"","id":"SARCENA","name":"Sarcenas, Sarcenas Le Village","wheelchair_boarding":"available"},"type":"Feature"},{"geometry":{"coordinates":[5.71919,45.15594],"type":"Point"},"properties":{"code":"2067","description":"","id":"2067","name":"Échirolles, Essarts - La Butte","parent_station":"ESSARTS","wheelchair_boarding":"available"},"type":"Feature"},{"geometry":{"coordinates":[5.66714,45.08518],"type":"Point"},"properties":{"code":"1695","description":"","id":"1695","name":"Varces-Allières-et-Risset, Chambord","parent_station":"CHAMBORD","wheelchair_boarding":"not available"},"type":"Feature"},{"geometry":{"coordinates":[5.73117,45.18551],"type":"Point"},"properties":{"code":"1990","description":"","id":"1990","name":"Grenoble, Chavant","parent_station":"CHAVANT","wheelchair_boarding":"available"},"type":"Feature"},{"geometry":{"coordinates":[5.66577,45.11315],"type":"Point"},"properties":{"code":"GENTAILLIS","description":"","id":"TAILLIS","name":"Claix, Les Taillis","wheelchair_boarding":"available"},"type":"Feature"},{"geometry":{"coordinates":[5.73676,45.18879],"type":"Point"},"properties":{"code":"786","description":"","id":"786","name":"Grenoble, Bir Hakeim","parent_station":"BIRHAKEI","wheelchair_boarding":"available"},"type":"Feature"},{"geometry":{"coordinates":[5.73216,45.19391],"type":"Point"},"properties":{"code":"834","description":"","id":"834","name":"Grenoble, Notre-Dame - Musée","parent_station":"NOTREDAM","wheelchair_boarding":"available"},"type":"Feature"},{"geometry":{"coordinates":[5.68256,45.22989],"type":"Point"},"properties":{"code":"3226","description":"","id":"3226","name":"Saint-Égrève, Pont de Vence","parent_station":"PTVENCE","wheelchair_boarding":"available"},"type":"Feature"},{"geometry":{"coordinates":[5.68747,45.19126],"type":"Point"},"properties":{"code":"2039","description":"","id":"2039","name":"Fontaine, Fontaine Hôtel de Ville - La Source","parent_station":"FONTAHDV","wheelchair_boarding":"available"},"type":"Feature"},{"geometry":{"coordinates":[5.94886,45.36042],"type":"Point"},"properties":{"code":"3168","description":"","id":"3168","name":"Le Touvet, Collège Pierre Aiguille","parent_station":"CPA","wheelchair_boarding":"available"},"type":"Feature"},{"geometry":{"coordinates":[5.69255,45.11993],"type":"Point"},"properties":{"code":"1225","description":"","id":"1225","name":"Claix, Pompidou","parent_station":"POMPIDOU","wheelchair_boarding":"available"},"type":"Feature"},{"geometry":{"coordinates":[5.75859,45.17088],"type":"Point"},"properties":{"code":"GENPOTIE","description":"","id":"POTIE","name":"Saint-Martin-d'Hères, Potié","wheelchair_boarding":"available"},"type":"Feature"},{"geometry":{"coordinates":[5.71482,45.15084],"type":"Point"},"properties":{"code":"1095","description":"","id":"1095","name":"Échirolles, Fernand Pelloutier","parent_station":"PELLOUTI","wheelchair_boarding":"available"},"type":"Feature"},{"geometry":{"coordinates":[5.7341,45.18228],"type":"Point"},"properties":{"code":"GENDRIANT","description":"","id":"DRIANT","name":"Grenoble, Driant","wheelchair_boarding":"available"},"type":"Feature"},{"geometry":{"coordinates":[5.75355,45.24117],"type":"Point"},"properties":{"code":"2269","description":"","id":"2269","name":"Corenc, Hameau de Vence","parent_station":"HVENCE","wheelchair_boarding":"not available"},"type":"Feature"},{"geometry":{"coordinates":[5.68891,45.23787],"type":"Point"},"properties":{"code":"176","description":"","id":"176","name":"Saint-Égrève, La Monta","parent_station":"LAMONTA","wheelchair_boarding":"available"},"type":"Feature"},{"geometry":{"coordinates":[5.6722,45.19727],"type":"Point"},"properties":{"code":"1611","description":"","id":"1611","name":"Fontaine, La Poya","parent_station":"LAPOYA","wheelchair_boarding":"available"},"type":"Feature"},{"geometry":{"coordinates":[5.71357,45.27869],"type":"Point"},"properties":{"code":"4103","description":"","id":"4103","name":"Proveysieux, Planfay Bas","parent_station":"PLANF","wheelchair_boarding":"not available"},"type":"Feature"},{"geometry":{"coordinates":[5.71795,45.14876],"type":"Point"},"properties":{"code":"2069","description":"","id":"2069","name":"Échirolles, La Rampe - Centre-Ville","parent_station":"RAMPE","wheelchair_boarding":"available"},"type":"Feature"},{"geometry":{"coordinates":[5.84024,45.15507],"type":"Point"},"properties":{"code":"3510","description":"","id":"3510","name":"Saint-Martin-d'Uriage, Carrefour de Chamrousse","parent_station":"CDCH","wheelchair_boarding":"available"},"type":"Feature"},{"geometry":{"coordinates":[5.652,45.21658],"type":"Point"},"properties":{"code":"GENPARCS","description":"","id":"PARCS","name":"Sassenage, Les Parcs","wheelchair_boarding":"available"},"type":"Feature"},{"geometry":{"coordinates":[5.75103,45.20065],"type":"Point"},"properties":{"code":"1134","description":"","id":"1134","name":"La Tronche, Vercors","parent_station":"VERCORS","wheelchair_boarding":"available"},"type":"Feature"},{"geometry":{"coordinates":[5.68641,45.22573],"type":"Point"},"properties":{"code":"1029","description":"","id":"1029","name":"Saint-Égrève, Muret","parent_station":"MURET","wheelchair_boarding":"available"},"type":"Feature"},{"geometry":{"coordinates":[5.69417,45.25329],"type":"Point"},"properties":{"code":"2294","description":"","id":"2294","name":"Proveysieux, Moretière","parent_station":"MORE","wheelchair_boarding":"not available"},"type":"Feature"},{"geometry":{"coordinates":[5.7927,45.22278],"type":"Point"},"properties":{"code":"GENDETOURBE","description":"","id":"DETOURBE","name":"Meylan, La Détourbe","wheelchair_boarding":"available"},"type":"Feature"},{"geometry":{"coordinates":[5.75769,45.17213],"type":"Point"},"properties":{"code":"GENETIEGRAP","description":"","id":"ETIEGRAP","name":"Saint-Martin-d'Hères, Etienne Grappe","wheelchair_boarding":"available"},"type":"Feature"},{"geometry":{"coordinates":[5.71914,45.2249],"type":"Point"},"properties":{"code":"162","description":"","id":"162","name":"Saint-Martin-le-Vinoux, Gatinet","parent_station":"LEGATINE","wheelchair_boarding":"not available"},"type":"Feature"},{"geometry":{"coordinates":[5.74252,45.16491],"type":"Point"},"properties":{"code":"GENMAISNEUV","description":"","id":"MAISNEUV","name":"Eybens, Maisons Neuves","wheelchair_boarding":"available"},"type":"Feature"},{"geometry":{"coordinates":[5.75414,45.18412],"type":"Point"},"properties":{"code":"GENMAISONCO","description":"","id":"MAISONCO","name":"Saint-Martin-d'Hères, Maison Communale","wheelchair_boarding":"available"},"type":"Feature"},{"geometry":{"coordinates":[5.71773,45.14835],"type":"Point"},"properties":{"code":"4658","description":"","id":"4658","name":"Échirolles, La Rampe - Centre Ville","parent_station":"RAMPE","wheelchair_boarding":"available"},"type":"Feature"},{"geometry":{"coordinates":[5.75848,45.17089],"type":"Point"},"properties":{"code":"880","description":"","id":"880","name":"Saint-Martin-d'Hères, Potié","parent_station":"POTIE","wheelchair_boarding":"available"},"type":"Feature"},{"geometry":{"coordinates":[5.74876,45.15273],"type":"Point"},"properties":{"code":"GENODYSSEE","description":"","id":"ODYSSEE","name":"Eybens, Odyssée","wheelchair_boarding":"available"},"type":"Feature"},{"geometry":{"coordinates":[5.62934,44.99995],"type":"Point"},"properties":{"code":"693","description":"","id":"693","name":"Le Gua, Saint-Barthélémy","parent_station":"STBARTHE","wheelchair_boarding":"not available"},"type":"Feature"},{"geometry":{"coordinates":[5.67773,45.1474],"type":"Point"},"properties":{"code":"GENHENRIREY","description":"","id":"HENRIREY","name":"Seyssins, Henri Rey","wheelchair_boarding":"available"},"type":"Feature"},{"geometry":{"coordinates":[5.68752,45.22352],"type":"Point"},"properties":{"code":"1329","description":"","id":"1329","name":"Saint-Égrève, Fiancey - Prédieu","parent_station":"PREDIEU","wheelchair_boarding":"available"},"type":"Feature"},{"geometry":{"coordinates":[5.6864,45.22612],"type":"Point"},"properties":{"code":"481","description":"","id":"481","name":"Saint-Égrève, Muret","parent_station":"MURET","wheelchair_boarding":"available"},"type":"Feature"},{"geometry":{"coordinates":[5.70151,45.01144],"type":"Point"},"properties":{"code":"2311","description":"","id":"2311","name":"Notre-Dame-de-Commiers, Les Pauttats","parent_station":"PAUT","wheelchair_boarding":"available"},"type":"Feature"},{"geometry":{"coordinates":[5.69424,45.17178],"type":"Point"},"properties":{"code":"GENGRANDPRE","description":"","id":"GRANDPRE","name":"Seyssinet-Pariset, Grand Pré","wheelchair_boarding":"available"},"type":"Feature"},{"geometry":{"coordinates":[5.69409,45.18912],"type":"Point"},"properties":{"code":"GENMAISONNA","description":"","id":"MAISONNA","name":"Fontaine, Louis Maisonnat","wheelchair_boarding":"available"},"type":"Feature"},{"geometry":{"coordinates":[5.74784,45.19707],"type":"Point"},"properties":{"code":"969","description":"","id":"969","name":"La Tronche, Hôpital Michallon - Belledonne","parent_station":"HOPMICHA","wheelchair_boarding":"not available"},"type":"Feature"},{"geometry":{"coordinates":[5.8524,45.25086],"type":"Point"},"properties":{"code":"GENSNG","description":"","id":"SNG","name":"Saint-Nazaire-les-Eymes, Saint Nazaire les Eymes Gare","wheelchair_boarding":"available"},"type":"Feature"},{"geometry":{"coordinates":[5.74549,45.20034],"type":"Point"},"properties":{"code":"2051","description":"","id":"2051","name":"La Tronche, Hôpital Michallon - Grésivaudan","parent_station":"MICHALLO","wheelchair_boarding":"available"},"type":"Feature"},{"geometry":{"coordinates":[5.79852,45.18388],"type":"Point"},"properties":{"code":"44","description":"","id":"44","name":"Gières, Pied de Gières","parent_station":"PIEDGIER","wheelchair_boarding":"available"},"type":"Feature"},{"geometry":{"coordinates":[5.72325,45.15975],"type":"Point"},"properties":{"code":"GENMAISANCI","description":"","id":"MAISANCI","name":"Grenoble, Maison des Anciens","wheelchair_boarding":"available"},"type":"Feature"},{"geometry":{"coordinates":[5.90249,45.25298],"type":"Point"},"properties":{"code":"GENLSA","description":"","id":"LSA","name":"Villard-Bonnot, Le Sabot","wheelchair_boarding":"available"},"type":"Feature"},{"geometry":{"coordinates":[5.85889,45.29137],"type":"Point"},"properties":{"code":"2377","description":"","id":"2377","name":"Plateau-des-Petites-Roches, Saint-Pancrasse Mairie","parent_station":"PPS","wheelchair_boarding":"available"},"type":"Feature"},{"geometry":{"coordinates":[5.70623,45.18007],"type":"Point"},"properties":{"code":"2232","description":"","id":"2232","name":"Grenoble, Vallier - Catane","parent_station":"VALLCATA","wheelchair_boarding":"available"},"type":"Feature"},{"geometry":{"coordinates":[5.86486,45.16887],"type":"Point"},"properties":{"code":"GENISAR","description":"","id":"ISAR","name":"Saint-Martin-d'Uriage, Izards Patte d'Oie","wheelchair_boarding":"available"},"type":"Feature"},{"geometry":{"coordinates":[5.73151,45.18455],"type":"Point"},"properties":{"code":"4601","description":"","id":"4601","name":"Grenoble, Chavant","parent_station":"CHAVANT","wheelchair_boarding":"available"},"type":"Feature"},{"geometry":{"coordinates":[5.67853,45.27232],"type":"Point"},"properties":{"code":"GENNAMIERE","description":"","id":"NAMIERE","name":"Mont-Saint-Martin, Chemin de Namière","wheelchair_boarding":"available"},"type":"Feature"},{"geometry":{"coordinates":[5.69019,45.11471],"type":"Point"},"properties":{"code":"266","description":"","id":"266","name":"Claix, Carrière","parent_station":"CARRIERE","wheelchair_boarding":"available"},"type":"Feature"},{"geometry":{"coordinates":[5.71427,45.17398],"type":"Point"},"properties":{"code":"GENALLIES","description":"","id":"ALLIES","name":"Grenoble, Alliés","wheelchair_boarding":"available"},"type":"Feature"},{"geometry":{"coordinates":[5.70505,45.17209],"type":"Point"},"properties":{"code":"850","description":"","id":"850","name":"Grenoble, Anatole France","parent_station":"ANATFRAN","wheelchair_boarding":"available"},"type":"Feature"},{"geometry":{"coordinates":[5.67946,45.20788],"type":"Point"},"properties":{"code":"1785","description":"","id":"1785","name":"Sassenage, Maladière","parent_station":"MALADIER","wheelchair_boarding":"not available"},"type":"Feature"},{"geometry":{"coordinates":[5.66171,45.25502],"type":"Point"},"properties":{"code":"2386","description":"","id":"2386","name":"Fontanil-Cornillon, Palluel","parent_station":"FTL","wheelchair_boarding":"available"},"type":"Feature"},{"geometry":{"coordinates":[5.73056,45.16348],"type":"Point"},"properties":{"code":"2004","description":"","id":"2004","name":"Grenoble, Arlequin","parent_station":"ARLEQUIN","wheelchair_boarding":"available"},"type":"Feature"},{"geometry":{"coordinates":[5.72126,45.09466],"type":"Point"},"properties":{"code":"GENSDM","description":"","id":"SDM","name":"Champagnier, Saut du Moine","wheelchair_boarding":"available"},"type":"Feature"},{"geometry":{"coordinates":[5.89095,45.24102],"type":"Point"},"properties":{"code":"3461","description":"","id":"3461","name":"Villard-Bonnot, Villard-Bonnot Église","parent_station":"VBE","wheelchair_boarding":"available"},"type":"Feature"},{"geometry":{"coordinates":[5.67206,45.08765],"type":"Point"},"properties":{"code":"1906","description":"","id":"1906","name":"Varces-Allières-et-Risset, La Pommeraie","parent_station":"POMMERAI","wheelchair_boarding":"not available"},"type":"Feature"},{"geometry":{"coordinates":[5.77102,45.0577],"type":"Point"},"properties":{"code":"GENPEAGEDEV","description":"","id":"PEAGEDEV","name":"Vizille, Le Péage","wheelchair_boarding":"available"},"type":"Feature"},{"geometry":{"coordinates":[5.94194,45.33866],"type":"Point"},"properties":{"code":"3174","description":"","id":"3174","name":"Le Touvet, La Frette","parent_station":"LFR","wheelchair_boarding":"available"},"type":"Feature"},{"geometry":{"coordinates":[5.73751,45.18743],"type":"Point"},"properties":{"code":"1630","description":"","id":"1630","name":"Grenoble, Grenoble Hôtel de Ville","parent_station":"GREHOTEL","wheelchair_boarding":"available"},"type":"Feature"},{"geometry":{"coordinates":[5.67447,45.15864],"type":"Point"},"properties":{"code":"1955","description":"","id":"1955","name":"Seyssins, Le Parlement","parent_station":"LEPARL","wheelchair_boarding":"available"},"type":"Feature"},{"geometry":{"coordinates":[5.82041,45.19328],"type":"Point"},"properties":{"code":"1531","description":"","id":"1531","name":"Murianette, La Briot","parent_station":"BRIOT","wheelchair_boarding":"available"},"type":"Feature"},{"geometry":{"coordinates":[5.72435,45.17172],"type":"Point"},"properties":{"code":"GENSTALALLI","description":"","id":"STALALLI","name":"Grenoble, Stalingrad-Alliés","wheelchair_boarding":"available"},"type":"Feature"},{"geometry":{"coordinates":[5.74982,45.14732],"type":"Point"},"properties":{"code":"2374","description":"","id":"2374","name":"Eybens, Eybens Mairie","parent_station":"EYBMAIRI","wheelchair_boarding":"available"},"type":"Feature"},{"geometry":{"coordinates":[5.72862,45.16348],"type":"Point"},"properties":{"code":"4645","description":"","id":"4645","name":"Grenoble, Reynoard","parent_station":"REYNOARD","wheelchair_boarding":"available"},"type":"Feature"},{"geometry":{"coordinates":[5.72828,45.19015],"type":"Point"},"properties":{"code":"2021","description":"","id":"2021","name":"Grenoble, Hubert Dubedout - Maison du Tourisme","parent_station":"DUBEDOUT","wheelchair_boarding":"available"},"type":"Feature"},{"geometry":{"coordinates":[5.74175,45.16683],"type":"Point"},"properties":{"code":"832","description":"","id":"832","name":"Grenoble, Jean Racine","parent_station":"JRACINE","wheelchair_boarding":"available"},"type":"Feature"},{"geometry":{"coordinates":[5.7742,45.26467],"type":"Point"},"properties":{"code":"GENMOLLARSA","description":"","id":"MOLLARSA","name":"Le Sappey-en-Chartreuse, Les Jonquilles","wheelchair_boarding":"available"},"type":"Feature"},{"geometry":{"coordinates":[5.74561,45.20331],"type":"Point"},"properties":{"code":"403","description":"","id":"403","name":"La Tronche, Commandant Nal","parent_station":"COMMANAL","wheelchair_boarding":"available"},"type":"Feature"},